[{"County_ID":605,"County_Name":"Baldwin County","County_Income":"36,399.00","Poverty_Rate":92.88,"County_Lat":"33.081466","County_Long":"-83.228206","Store_Name":"Chick-Fil-A","Store_Lat":33.100634,"Store_Long":-83.2481924,"Store_Address":"1730 N Columbia St, Milledgeville, GA, 31061","Dist":1.7575804318},{"County_ID":605,"County_Name":"Baldwin County","County_Income":"36,399.00","Poverty_Rate":92.88,"County_Lat":"33.081466","County_Long":"-83.228206","Store_Name":"Cook Out","Store_Lat":33.1055618582,"Store_Long":-83.2512146197,"Store_Address":"1893 N Columbia St, Milledgeville, GA, 31061","Dist":2.1304355058},{"County_ID":605,"County_Name":"Baldwin County","County_Income":"36,399.00","Poverty_Rate":92.88,"County_Lat":"33.081466","County_Long":"-83.228206","Store_Name":"Chick-Fil-A","Store_Lat":33.0808087,"Store_Long":-83.2318833,"Store_Address":"231 W Hancock St, Milledgeville, GA, 31061","Dist":0.2180976466},{"County_ID":605,"County_Name":"Baldwin County","County_Income":"36,399.00","Poverty_Rate":92.88,"County_Lat":"33.081466","County_Long":"-83.228206","Store_Name":"Freddy's Frozen Custard & Steakburgers","Store_Lat":33.099372,"Store_Long":-83.245621,"Store_Address":"1671 N Columbia St, Milledgeville, GA, 31061","Dist":1.5947634637},{"County_ID":605,"County_Name":"Baldwin County","County_Income":"36,399.00","Poverty_Rate":92.88,"County_Lat":"33.081466","County_Long":"-83.228206","Store_Name":"Firehouse Subs","Store_Lat":33.107465,"Store_Long":-83.252706,"Store_Address":"1909 N Columbia St, Milledgeville, GA, 31061","Dist":2.2868968919},{"County_ID":605,"County_Name":"Baldwin County","County_Income":"36,399.00","Poverty_Rate":92.88,"County_Lat":"33.081466","County_Long":"-83.228206","Store_Name":"McAlister's Deli","Store_Lat":33.107437,"Store_Long":-83.256457,"Store_Address":"114 Roberson Mill Rd NE, Milledgeville, GA, 31061","Dist":2.4266814947},{"County_ID":605,"County_Name":"Baldwin County","County_Income":"36,399.00","Poverty_Rate":92.88,"County_Lat":"33.081466","County_Long":"-83.228206","Store_Name":"Jimmy John's","Store_Lat":33.0808300606,"Store_Long":-83.2287226622,"Store_Address":"100 S Wilkinson St, Milledgeville, GA, 31061","Dist":0.0530952346},{"County_ID":605,"County_Name":"Baldwin County","County_Income":"36,399.00","Poverty_Rate":92.88,"County_Lat":"33.081466","County_Long":"-83.228206","Store_Name":"McDonald's","Store_Lat":33.1129098,"Store_Long":-83.2594447,"Store_Address":"2490 N Columbia Street Atlanta Fld, Milledgeville, GA, 31061","Dist":2.8246959232},{"County_ID":605,"County_Name":"Baldwin County","County_Income":"36,399.00","Poverty_Rate":92.88,"County_Lat":"33.081466","County_Long":"-83.228206","Store_Name":"Sonic Drive-In","Store_Lat":33.0988196664,"Store_Long":-83.2447965351,"Store_Address":"9150 Baltimore National Pike, Milledgeville, GA, 31061","Dist":1.5350701766},{"County_ID":605,"County_Name":"Baldwin County","County_Income":"36,399.00","Poverty_Rate":92.88,"County_Lat":"33.081466","County_Long":"-83.228206","Store_Name":"Subway","Store_Lat":33.1031593275,"Store_Long":-83.2487557957,"Store_Address":"1829 N Columbia St, Milledgeville, GA, 31061","Dist":1.9120548256},{"County_ID":605,"County_Name":"Baldwin County","County_Income":"36,399.00","Poverty_Rate":92.88,"County_Lat":"33.081466","County_Long":"-83.228206","Store_Name":"Taco Bell","Store_Lat":33.1123852801,"Store_Long":-83.2574638849,"Store_Address":"2495 N Columbia St, Milledgeville, GA, 31061","Dist":2.7240384434},{"County_ID":605,"County_Name":"Baldwin County","County_Income":"36,399.00","Poverty_Rate":92.88,"County_Lat":"33.081466","County_Long":"-83.228206","Store_Name":"Barberitos","Store_Lat":33.0808610657,"Store_Long":-83.228596048,"Store_Address":"148 W Hancock St, Milledgeville, GA, 31061","Dist":0.0474339791},{"County_ID":605,"County_Name":"Baldwin County","County_Income":"36,399.00","Poverty_Rate":92.88,"County_Lat":"33.081466","County_Long":"-83.228206","Store_Name":"Jersey Mike's","Store_Lat":33.15063,"Store_Long":-83.27323,"Store_Address":"2789 N Columbia St, Milledgeville, GA, 31061","Dist":5.4347072176},{"County_ID":605,"County_Name":"Baldwin County","County_Income":"36,399.00","Poverty_Rate":92.88,"County_Lat":"33.081466","County_Long":"-83.228206","Store_Name":"Domino's Pizza","Store_Lat":33.1075982367,"Store_Long":-83.2526886463,"Store_Address":"1909 N Columbia St, Milledgeville, GA, 31061","Dist":2.293473487},{"County_ID":605,"County_Name":"Baldwin County","County_Income":"36,399.00","Poverty_Rate":92.88,"County_Lat":"33.081466","County_Long":"-83.228206","Store_Name":"Papa John's Pizza","Store_Lat":33.1051022,"Store_Long":-83.2531558,"Store_Address":"1960 N Columbia St, Milledgeville, GA, 31061","Dist":2.1789509427},{"County_ID":605,"County_Name":"Baldwin County","County_Income":"36,399.00","Poverty_Rate":92.88,"County_Lat":"33.081466","County_Long":"-83.228206","Store_Name":"Little Caesars Pizza","Store_Lat":33.1068940902,"Store_Long":-83.2523958585,"Store_Address":"1905 N Columbia St, Milledgeville, GA, 31061","Dist":2.2449194092},{"County_ID":605,"County_Name":"Baldwin County","County_Income":"36,399.00","Poverty_Rate":92.88,"County_Lat":"33.081466","County_Long":"-83.228206","Store_Name":"Wendy's","Store_Lat":33.1085873205,"Store_Long":-83.2537075086,"Store_Address":"2341 N Columbia St, Milledgeville, GA, 31061","Dist":2.3835905213},{"County_ID":605,"County_Name":"Baldwin County","County_Income":"36,399.00","Poverty_Rate":92.88,"County_Lat":"33.081466","County_Long":"-83.228206","Store_Name":"McDonald's","Store_Lat":33.0736185687,"Store_Long":-83.2254861202,"Store_Address":"611 S Wayne St Atlanta Fld, Milledgeville, GA, 31061","Dist":0.5633482537},{"County_ID":605,"County_Name":"Baldwin County","County_Income":"36,399.00","Poverty_Rate":92.88,"County_Lat":"33.081466","County_Long":"-83.228206","Store_Name":"Subway","Store_Lat":33.1185215579,"Store_Long":-83.2641077338,"Store_Address":"2600 N Columbia St, Milledgeville, GA, 31061","Dist":3.2950870811},{"County_ID":605,"County_Name":"Baldwin County","County_Income":"36,399.00","Poverty_Rate":92.88,"County_Lat":"33.081466","County_Long":"-83.228206","Store_Name":"Panda Express","Store_Lat":33.13849,"Store_Long":-83.27066,"Store_Address":"2407 N Columbia St, Milledgeville, GA, 31061","Dist":4.6373923183},{"County_ID":605,"County_Name":"Baldwin County","County_Income":"36,399.00","Poverty_Rate":92.88,"County_Lat":"33.081466","County_Long":"-83.228206","Store_Name":"KFC","Store_Lat":33.1082521851,"Store_Long":-83.2533324711,"Store_Address":"2337 N Columbia St, Milledgeville, GA, 31061","Dist":2.3519829947},{"County_ID":605,"County_Name":"Baldwin County","County_Income":"36,399.00","Poverty_Rate":92.88,"County_Lat":"33.081466","County_Long":"-83.228206","Store_Name":"Blimpie","Store_Lat":33.080726,"Store_Long":-83.231238,"Store_Address":"231 W Hancock St, Milledgeville, GA, 31061","Dist":0.1831473065},{"County_ID":605,"County_Name":"Baldwin County","County_Income":"36,399.00","Poverty_Rate":92.88,"County_Lat":"33.081466","County_Long":"-83.228206","Store_Name":"Real Deal Grill & More","Store_Lat":33.070278,"Store_Long":-83.224899,"Store_Address":"185 W Andrews St, Milledgeville, GA, 31061","Dist":0.7945214167},{"County_ID":605,"County_Name":"Baldwin County","County_Income":"36,399.00","Poverty_Rate":92.88,"County_Lat":"33.081466","County_Long":"-83.228206","Store_Name":"Shrimp Boat","Store_Lat":33.069914,"Store_Long":-83.2208,"Store_Address":"911 S Elbert St, Milledgeville, GA, 31061","Dist":0.9046521691},{"County_ID":605,"County_Name":"Baldwin County","County_Income":"36,399.00","Poverty_Rate":92.88,"County_Lat":"33.081466","County_Long":"-83.228206","Store_Name":"Zaxby's","Store_Lat":33.099824,"Store_Long":-83.247239,"Store_Address":"1692 N Columbia St, Milledgeville, GA, 31061","Dist":1.6791547038},{"County_ID":631,"County_Name":"Clayton County","County_Income":"32,702.00","Poverty_Rate":92.55,"County_Lat":"33.506014","County_Long":"-84.357362","Store_Name":"Chick-Fil-A","Store_Lat":33.5539166,"Store_Long":-84.3696433,"Store_Address":"7348 Tara Blvd, Jonesboro, GA, 30236","Dist":3.3766311797},{"County_ID":631,"County_Name":"Clayton County","County_Income":"32,702.00","Poverty_Rate":92.55,"County_Lat":"33.506014","County_Long":"-84.357362","Store_Name":"Chick-Fil-A","Store_Lat":33.5625775,"Store_Long":-84.323142,"Store_Address":"2042 Mount Zion Rd, Jonesboro, GA, 30236","Dist":4.3700684054},{"County_ID":631,"County_Name":"Clayton County","County_Income":"32,702.00","Poverty_Rate":92.55,"County_Lat":"33.506014","County_Long":"-84.357362","Store_Name":"Chick-Fil-A","Store_Lat":33.449401,"Store_Long":-84.3259954,"Store_Address":"11161 Tara Blvd, Jonesboro, GA, 30236","Dist":4.3017066312},{"County_ID":631,"County_Name":"Clayton County","County_Income":"32,702.00","Poverty_Rate":92.55,"County_Lat":"33.506014","County_Long":"-84.357362","Store_Name":"Panera Bread","Store_Lat":33.4754532,"Store_Long":-84.4389893,"Store_Address":"104 Ellis Rd, Jonesboro, GA, 30236","Dist":5.1627701422},{"County_ID":631,"County_Name":"Clayton County","County_Income":"32,702.00","Poverty_Rate":92.55,"County_Lat":"33.506014","County_Long":"-84.357362","Store_Name":"Zaxby's","Store_Lat":33.559492,"Store_Long":-84.32493,"Store_Address":"7149 Mount Zion Blvd, Jonesboro, GA, 30236","Dist":4.1337527221},{"County_ID":631,"County_Name":"Clayton County","County_Income":"32,702.00","Poverty_Rate":92.55,"County_Lat":"33.506014","County_Long":"-84.357362","Store_Name":"Chick-Fil-A","Store_Lat":33.5756225,"Store_Long":-84.4129849,"Store_Address":"6549 Highway 85, Jonesboro, GA, 30236","Dist":5.772288649},{"County_ID":631,"County_Name":"Clayton County","County_Income":"32,702.00","Poverty_Rate":92.55,"County_Lat":"33.506014","County_Long":"-84.357362","Store_Name":"Zaxby's","Store_Lat":33.548858,"Store_Long":-84.415414,"Store_Address":"7541 Highway 85, Jonesboro, GA, 30236","Dist":4.4661829465},{"County_ID":631,"County_Name":"Clayton County","County_Income":"32,702.00","Poverty_Rate":92.55,"County_Lat":"33.506014","County_Long":"-84.357362","Store_Name":"Martin's Restaurant","Store_Lat":33.5584491567,"Store_Long":-84.345408521,"Store_Address":"7200 Jonesboro Rd, Jonesboro, GA, 30236","Dist":3.6790343998},{"County_ID":631,"County_Name":"Clayton County","County_Income":"32,702.00","Poverty_Rate":92.55,"County_Lat":"33.506014","County_Long":"-84.357362","Store_Name":"Little Caesars Pizza","Store_Lat":33.5727520658,"Store_Long":-84.3725159576,"Store_Address":"6655 Tara Blvd, Jonesboro, GA, 30236","Dist":4.6819190131},{"County_ID":631,"County_Name":"Clayton County","County_Income":"32,702.00","Poverty_Rate":92.55,"County_Lat":"33.506014","County_Long":"-84.357362","Store_Name":"Zaxby's","Store_Lat":33.474876,"Store_Long":-84.439822,"Store_Address":"1325 Highway 85 N, Jonesboro, GA, 30236","Dist":5.2229409891},{"County_ID":631,"County_Name":"Clayton County","County_Income":"32,702.00","Poverty_Rate":92.55,"County_Lat":"33.506014","County_Long":"-84.357362","Store_Name":"Chipotle Mexican Grill","Store_Lat":33.562695515,"Store_Long":-84.3246622552,"Store_Address":"2011 Mount Zion Rd, Jonesboro, GA, 30236","Dist":4.3384412031},{"County_ID":631,"County_Name":"Clayton County","County_Income":"32,702.00","Poverty_Rate":92.55,"County_Lat":"33.506014","County_Long":"-84.357362","Store_Name":"Popeyes Louisiana Kitchen","Store_Lat":33.575400495,"Store_Long":-84.3726682026,"Store_Address":"6553 Tara Blvd, Jonesboro, GA, 30236","Dist":4.8629392902},{"County_ID":631,"County_Name":"Clayton County","County_Income":"32,702.00","Poverty_Rate":92.55,"County_Lat":"33.506014","County_Long":"-84.357362","Store_Name":"Bojangles' Famous Chicken 'n Biscuits","Store_Lat":33.5545444,"Store_Long":-84.3462628,"Store_Address":"7340 Jonesboro Rd, Jonesboro, GA, 30236","Dist":3.4054535811},{"County_ID":631,"County_Name":"Clayton County","County_Income":"32,702.00","Poverty_Rate":92.55,"County_Lat":"33.506014","County_Long":"-84.357362","Store_Name":"Jersey Mike's","Store_Lat":33.472164,"Store_Long":-84.338365,"Store_Address":"10359 Tara Blvd, Jonesboro, GA, 30236","Dist":2.5779404314},{"County_ID":631,"County_Name":"Clayton County","County_Income":"32,702.00","Poverty_Rate":92.55,"County_Lat":"33.506014","County_Long":"-84.357362","Store_Name":"Subway","Store_Lat":33.5225623443,"Store_Long":-84.4228300737,"Store_Address":"8508 Highway 85, Jonesboro, GA, 30236","Dist":3.9477920869},{"County_ID":631,"County_Name":"Clayton County","County_Income":"32,702.00","Poverty_Rate":92.55,"County_Lat":"33.506014","County_Long":"-84.357362","Store_Name":"Cook Out","Store_Lat":33.5667648217,"Store_Long":-84.4136606107,"Store_Address":"6897 GA 85, Jonesboro, GA, 30236","Dist":5.2997878195},{"County_ID":631,"County_Name":"Clayton County","County_Income":"32,702.00","Poverty_Rate":92.55,"County_Lat":"33.506014","County_Long":"-84.357362","Store_Name":"Wendy's","Store_Lat":33.5616556442,"Store_Long":-84.3235498667,"Store_Address":"2059 Mount Zion Rd, Jonesboro, GA, 30236","Dist":4.3027662644},{"County_ID":631,"County_Name":"Clayton County","County_Income":"32,702.00","Poverty_Rate":92.55,"County_Lat":"33.506014","County_Long":"-84.357362","Store_Name":"Domino's Pizza","Store_Lat":33.5231839862,"Store_Long":-84.3628531936,"Store_Address":"8496 Tara Blvd, Jonesboro, GA, 30236","Dist":1.2250560254},{"County_ID":631,"County_Name":"Clayton County","County_Income":"32,702.00","Poverty_Rate":92.55,"County_Lat":"33.506014","County_Long":"-84.357362","Store_Name":"Panda Express","Store_Lat":33.5608154734,"Store_Long":-84.4143459001,"Store_Address":"7105 Highway 85, Jonesboro, GA, 30236","Dist":5.0081705829},{"County_ID":631,"County_Name":"Clayton County","County_Income":"32,702.00","Poverty_Rate":92.55,"County_Lat":"33.506014","County_Long":"-84.357362","Store_Name":"Subway","Store_Lat":33.5333893927,"Store_Long":-84.3661913688,"Store_Address":"8103 Tara Blvd, Jonesboro, GA, 30236","Dist":1.9543071623},{"County_ID":631,"County_Name":"Clayton County","County_Income":"32,702.00","Poverty_Rate":92.55,"County_Lat":"33.506014","County_Long":"-84.357362","Store_Name":"Long John Silver's","Store_Lat":33.522786,"Store_Long":-84.362829,"Store_Address":"8502 Tara Blvd, Jonesboro, GA, 30236","Dist":1.1982141593},{"County_ID":631,"County_Name":"Clayton County","County_Income":"32,702.00","Poverty_Rate":92.55,"County_Lat":"33.506014","County_Long":"-84.357362","Store_Name":"Zaxby's","Store_Lat":33.451259,"Store_Long":-84.32639,"Store_Address":"11131 Tara Blvd, Jonesboro, GA, 30236","Dist":4.1760924322},{"County_ID":631,"County_Name":"Clayton County","County_Income":"32,702.00","Poverty_Rate":92.55,"County_Lat":"33.506014","County_Long":"-84.357362","Store_Name":"Little Caesars Pizza","Store_Lat":33.535914,"Store_Long":-84.365431,"Store_Address":"7977 Tara Blvd, Jonesboro, GA, 30236","Dist":2.1126527616},{"County_ID":631,"County_Name":"Clayton County","County_Income":"32,702.00","Poverty_Rate":92.55,"County_Lat":"33.506014","County_Long":"-84.357362","Store_Name":"Arby's","Store_Lat":33.5235396097,"Store_Long":-84.3626994011,"Store_Address":"8490 Tara Blvd, Jonesboro, GA, 30236","Dist":1.2465219953},{"County_ID":631,"County_Name":"Clayton County","County_Income":"32,702.00","Poverty_Rate":92.55,"County_Lat":"33.506014","County_Long":"-84.357362","Store_Name":"Auntie Anne's","Store_Lat":33.5749881,"Store_Long":-84.3513953,"Store_Address":"1000 Southlake Mall, Jonesboro, GA, 30236","Dist":4.7660693594},{"County_ID":633,"County_Name":"Cobb County","County_Income":"63,214.00","Poverty_Rate":39.14,"County_Lat":"33.962944","County_Long":"-84.544548","Store_Name":"Brandi's World Famous Hot Dogs","Store_Lat":33.9754999781,"Store_Long":-84.5537067498,"Store_Address":"1377 Church Street Ext NE, Marietta, GA, 30060","Dist":1.0126924221},{"County_ID":633,"County_Name":"Cobb County","County_Income":"63,214.00","Poverty_Rate":39.14,"County_Lat":"33.962944","County_Long":"-84.544548","Store_Name":"Chick-Fil-A","Store_Lat":33.9475351,"Store_Long":-84.5194409,"Store_Address":"170 Cobb Pkwy S, Marietta, GA, 30060","Dist":1.7909160521},{"County_ID":633,"County_Name":"Cobb County","County_Income":"63,214.00","Poverty_Rate":39.14,"County_Lat":"33.962944","County_Long":"-84.544548","Store_Name":"UpDog Smoothies & Juices","Store_Lat":33.9542084436,"Store_Long":-84.5503351247,"Store_Address":"107 Church St NE, Marietta, GA, 30060","Dist":0.6877337976},{"County_ID":633,"County_Name":"Cobb County","County_Income":"63,214.00","Poverty_Rate":39.14,"County_Lat":"33.962944","County_Long":"-84.544548","Store_Name":"Firehouse Subs","Store_Lat":33.959325,"Store_Long":-84.548594,"Store_Address":"145 N Marietta Pkwy NE, Marietta, GA, 30060","Dist":0.3408987759},{"County_ID":633,"County_Name":"Cobb County","County_Income":"63,214.00","Poverty_Rate":39.14,"County_Lat":"33.962944","County_Long":"-84.544548","Store_Name":"Chick-Fil-A","Store_Lat":33.966594,"Store_Long":-84.4919126,"Store_Address":"2105 Roswell Rd, Marietta, GA, 30060","Dist":3.0332442833},{"County_ID":633,"County_Name":"Cobb County","County_Income":"63,214.00","Poverty_Rate":39.14,"County_Lat":"33.962944","County_Long":"-84.544548","Store_Name":"Stockyard Burgers and Bones","Store_Lat":33.9533081796,"Store_Long":-84.5507922262,"Store_Address":"26 Mill St NE, Marietta, GA, 30060","Dist":0.7547766046},{"County_ID":633,"County_Name":"Cobb County","County_Income":"63,214.00","Poverty_Rate":39.14,"County_Lat":"33.962944","County_Long":"-84.544548","Store_Name":"Jersey Mike's","Store_Lat":34.005724,"Store_Long":-84.576914,"Store_Address":"840 Ernest W Barrett Pkwy NW, Marietta, GA, 30060","Dist":3.4853047319},{"County_ID":633,"County_Name":"Cobb County","County_Income":"63,214.00","Poverty_Rate":39.14,"County_Lat":"33.962944","County_Long":"-84.544548","Store_Name":"Chick-Fil-A","Store_Lat":34.0070494,"Store_Long":-84.5739644,"Store_Address":"830 Ernest W Barrett Pkwy NW, Marietta, GA, 30060","Dist":3.4775879566},{"County_ID":633,"County_Name":"Cobb County","County_Income":"63,214.00","Poverty_Rate":39.14,"County_Lat":"33.962944","County_Long":"-84.544548","Store_Name":"Cook Out","Store_Lat":33.9512762424,"Store_Long":-84.5212845224,"Store_Address":"9 Cobb Pkwy N, Marietta, GA, 30060","Dist":1.5594599291},{"County_ID":633,"County_Name":"Cobb County","County_Income":"63,214.00","Poverty_Rate":39.14,"County_Lat":"33.962944","County_Long":"-84.544548","Store_Name":"Chick-Fil-A","Store_Lat":34.0126169,"Store_Long":-84.4953357,"Store_Address":"2530 Sandy Plains Rd, Marietta, GA, 30060","Dist":4.4389755973},{"County_ID":633,"County_Name":"Cobb County","County_Income":"63,214.00","Poverty_Rate":39.14,"County_Lat":"33.962944","County_Long":"-84.544548","Store_Name":"Martin's Restaurant","Store_Lat":34.0018503675,"Store_Long":-84.5978537077,"Store_Address":"2005 Cobb Pkwy NW, Marietta, GA, 30060","Dist":4.0692082502},{"County_ID":633,"County_Name":"Cobb County","County_Income":"63,214.00","Poverty_Rate":39.14,"County_Lat":"33.962944","County_Long":"-84.544548","Store_Name":"The Varsity","Store_Lat":34.0202580013,"Store_Long":-84.5611185558,"Store_Address":"2790 Town Center Dr NW, Marietta, GA, 30060","Dist":4.063239615},{"County_ID":633,"County_Name":"Cobb County","County_Income":"63,214.00","Poverty_Rate":39.14,"County_Lat":"33.962944","County_Long":"-84.544548","Store_Name":"Chick-Fil-A","Store_Lat":33.9458005,"Store_Long":-84.6263462,"Store_Address":"2555 Dallas Hwy SW, Marietta, GA, 30060","Dist":4.8444603555},{"County_ID":633,"County_Name":"Cobb County","County_Income":"63,214.00","Poverty_Rate":39.14,"County_Lat":"33.962944","County_Long":"-84.544548","Store_Name":"MOD Pizza","Store_Lat":33.99995979,"Store_Long":-84.59153769,"Store_Address":"1945 Cobb Pkwy NW, Marietta, GA, 30060","Dist":3.7132710264},{"County_ID":633,"County_Name":"Cobb County","County_Income":"63,214.00","Poverty_Rate":39.14,"County_Lat":"33.962944","County_Long":"-84.544548","Store_Name":"Panera Bread","Store_Lat":33.9695969029,"Store_Long":-84.5495206118,"Store_Address":"732 Cherokee St NE, Marietta, GA, 30060","Dist":0.5401934499},{"County_ID":633,"County_Name":"Cobb County","County_Income":"63,214.00","Poverty_Rate":39.14,"County_Lat":"33.962944","County_Long":"-84.544548","Store_Name":"KFC","Store_Lat":33.9513357745,"Store_Long":-84.5202626387,"Store_Address":"12 Cobb Pkwy N, Marietta, GA, 30060","Dist":1.6079837678},{"County_ID":633,"County_Name":"Cobb County","County_Income":"63,214.00","Poverty_Rate":39.14,"County_Lat":"33.962944","County_Long":"-84.544548","Store_Name":"Bruster's Ice Cream","Store_Lat":34.0259202134,"Store_Long":-84.5673572462,"Store_Address":"2960 George Busbee Pkwy NW, Marietta, GA, 30060","Dist":4.5337824789},{"County_ID":633,"County_Name":"Cobb County","County_Income":"63,214.00","Poverty_Rate":39.14,"County_Lat":"33.962944","County_Long":"-84.544548","Store_Name":"Chick-Fil-A","Store_Lat":33.8779884,"Store_Long":-84.5330011,"Store_Address":"3100 S Cobb Dr SE, Marietta, GA, 30060","Dist":5.8928687104},{"County_ID":633,"County_Name":"Cobb County","County_Income":"63,214.00","Poverty_Rate":39.14,"County_Lat":"33.962944","County_Long":"-84.544548","Store_Name":"McAlister's Deli","Store_Lat":34.0254769842,"Store_Long":-84.5671768559,"Store_Address":"2950 Busbee Pkwy NW, Marietta, GA, 30060","Dist":4.5015452196},{"County_ID":633,"County_Name":"Cobb County","County_Income":"63,214.00","Poverty_Rate":39.14,"County_Lat":"33.962944","County_Long":"-84.544548","Store_Name":"Freddy's Frozen Custard & Steakburgers","Store_Lat":33.9962522243,"Store_Long":-84.5903179259,"Store_Address":"1360 Ernest W Barrett Pkwy NW, Marietta, GA, 30060","Dist":3.4895652715},{"County_ID":633,"County_Name":"Cobb County","County_Income":"63,214.00","Poverty_Rate":39.14,"County_Lat":"33.962944","County_Long":"-84.544548","Store_Name":"Zaxby's","Store_Lat":33.879869,"Store_Long":-84.511671,"Store_Address":"1420 Spring Rd SE, Marietta, GA, 30060","Dist":6.0293536999},{"County_ID":633,"County_Name":"Cobb County","County_Income":"63,214.00","Poverty_Rate":39.14,"County_Lat":"33.962944","County_Long":"-84.544548","Store_Name":"Chipotle Mexican Grill","Store_Lat":34.0038474199,"Store_Long":-84.579249989,"Store_Address":"954 Ernest W Barrett Pkwy NW, Marietta, GA, 30060","Dist":3.4522308282},{"County_ID":633,"County_Name":"Cobb County","County_Income":"63,214.00","Poverty_Rate":39.14,"County_Lat":"33.962944","County_Long":"-84.544548","Store_Name":"Firehouse Subs","Store_Lat":33.948397,"Store_Long":-84.624311,"Store_Address":"2500 Dallas Hwy SW, Marietta, GA, 30060","Dist":4.6896235127},{"County_ID":633,"County_Name":"Cobb County","County_Income":"63,214.00","Poverty_Rate":39.14,"County_Lat":"33.962944","County_Long":"-84.544548","Store_Name":"Zaxby's","Store_Lat":33.994403,"Store_Long":-84.597781,"Store_Address":"1640 Old 41 Hwy NW, Marietta, GA, 30060","Dist":3.7475725185},{"County_ID":633,"County_Name":"Cobb County","County_Income":"63,214.00","Poverty_Rate":39.14,"County_Lat":"33.962944","County_Long":"-84.544548","Store_Name":"Jason's Deli","Store_Lat":34.0025802435,"Store_Long":-84.5795732605,"Store_Address":"945 Ernest W Barrett Pkwy NW, Marietta, GA, 30060","Dist":3.3922618348},{"County_ID":634,"County_Name":"Coffee County","County_Income":"35,507.00","Poverty_Rate":87.34,"County_Lat":"31.508705","County_Long":"-82.850724","Store_Name":"Bobby's Treat Shop","Store_Lat":31.5091281294,"Store_Long":-82.8511772586,"Store_Address":"201 Ward St W, Douglas, GA, 31533","Dist":0.0395680285},{"County_ID":634,"County_Name":"Coffee County","County_Income":"35,507.00","Poverty_Rate":87.34,"County_Lat":"31.508705","County_Long":"-82.850724","Store_Name":"Zaxby's","Store_Lat":31.496518,"Store_Long":-82.850523,"Store_Address":"1004 Peterson Ave S, Douglas, GA, 31533","Dist":0.8397250184},{"County_ID":634,"County_Name":"Coffee County","County_Income":"35,507.00","Poverty_Rate":87.34,"County_Lat":"31.508705","County_Long":"-82.850724","Store_Name":"Firehouse Subs","Store_Lat":31.497994574,"Store_Long":-82.8502960061,"Store_Address":"914 Peterson Ave S, Douglas, GA, 31533","Dist":0.7383429165},{"County_ID":634,"County_Name":"Coffee County","County_Income":"35,507.00","Poverty_Rate":87.34,"County_Lat":"31.508705","County_Long":"-82.850724","Store_Name":"Subway","Store_Lat":31.509715184,"Store_Long":-82.8617336285,"Store_Address":"919 Ward St W, Douglas, GA, 31533","Dist":0.6535695316},{"County_ID":634,"County_Name":"Coffee County","County_Income":"35,507.00","Poverty_Rate":87.34,"County_Lat":"31.508705","County_Long":"-82.850724","Store_Name":"Domino's Pizza","Store_Lat":31.5163297209,"Store_Long":-82.8511539102,"Store_Address":"803 Peterson Ave N, Douglas, GA, 31533","Dist":0.5259296082},{"County_ID":634,"County_Name":"Coffee County","County_Income":"35,507.00","Poverty_Rate":87.34,"County_Lat":"31.508705","County_Long":"-82.850724","Store_Name":"Subway","Store_Lat":31.4919266382,"Store_Long":-82.8491735346,"Store_Address":"1224 Madison Ave S, Douglas, GA, 31533","Dist":1.1595870918},{"County_ID":634,"County_Name":"Coffee County","County_Income":"35,507.00","Poverty_Rate":87.34,"County_Lat":"31.508705","County_Long":"-82.850724","Store_Name":"Pizza Hut","Store_Lat":31.4805610863,"Store_Long":-82.8507757187,"Store_Address":"1716 S Peterson Ave, Douglas, GA, 31533","Dist":1.9390160822},{"County_ID":634,"County_Name":"Coffee County","County_Income":"35,507.00","Poverty_Rate":87.34,"County_Lat":"31.508705","County_Long":"-82.850724","Store_Name":"Arby's","Store_Lat":31.4902867327,"Store_Long":-82.8503967233,"Store_Address":"1322 Madison Ave S, Douglas, GA, 31533","Dist":1.2690999121},{"County_ID":634,"County_Name":"Coffee County","County_Income":"35,507.00","Poverty_Rate":87.34,"County_Lat":"31.508705","County_Long":"-82.850724","Store_Name":"KFC","Store_Lat":31.518700303,"Store_Long":-82.8502879883,"Store_Address":"1002 Peterson Ave N, Douglas, GA, 31533","Dist":0.6891229073},{"County_ID":634,"County_Name":"Coffee County","County_Income":"35,507.00","Poverty_Rate":87.34,"County_Lat":"31.508705","County_Long":"-82.850724","Store_Name":"Taco Bell","Store_Lat":31.493827315,"Store_Long":-82.8505291947,"Store_Address":"1200 Peterson Ave S, Douglas, GA, 31533","Dist":1.0250841538},{"County_ID":634,"County_Name":"Coffee County","County_Income":"35,507.00","Poverty_Rate":87.34,"County_Lat":"31.508705","County_Long":"-82.850724","Store_Name":"McDonald's","Store_Lat":31.491932,"Store_Long":-82.850553,"Store_Address":"1300 S Peterson Atlanta Field Office, Douglas, GA, 31533","Dist":1.15564404},{"County_ID":634,"County_Name":"Coffee County","County_Income":"35,507.00","Poverty_Rate":87.34,"County_Lat":"31.508705","County_Long":"-82.850724","Store_Name":"Checkers","Store_Lat":31.4953892776,"Store_Long":-82.8505410699,"Store_Address":"1100 Peterson Ave S, Douglas, GA, 31533","Dist":0.9174696413},{"County_ID":634,"County_Name":"Coffee County","County_Income":"35,507.00","Poverty_Rate":87.34,"County_Lat":"31.508705","County_Long":"-82.850724","Store_Name":"Hardee's","Store_Lat":31.4883620696,"Store_Long":-82.8523171049,"Store_Address":"1392 Bowens Mill Rd SW, Douglas, GA, 31533","Dist":1.4047067434},{"County_ID":634,"County_Name":"Coffee County","County_Income":"35,507.00","Poverty_Rate":87.34,"County_Lat":"31.508705","County_Long":"-82.850724","Store_Name":"Burger King","Store_Lat":31.5172506,"Store_Long":-82.8496888,"Store_Address":"811 Madison Ave N, Douglas, GA, 31533","Dist":0.5919245819},{"County_ID":634,"County_Name":"Coffee County","County_Income":"35,507.00","Poverty_Rate":87.34,"County_Lat":"31.508705","County_Long":"-82.850724","Store_Name":"Krystal","Store_Lat":31.4935207924,"Store_Long":-82.8505960107,"Store_Address":"1206 Peterson Ave S, Douglas, GA, 31533","Dist":1.0461652306},{"County_ID":634,"County_Name":"Coffee County","County_Income":"35,507.00","Poverty_Rate":87.34,"County_Lat":"31.508705","County_Long":"-82.850724","Store_Name":"Elliano's","Store_Lat":31.5030679151,"Store_Long":-82.8502767535,"Store_Address":"502 Peterson Ave S, Douglas, GA, 31533","Dist":0.389271656},{"County_ID":634,"County_Name":"Coffee County","County_Income":"35,507.00","Poverty_Rate":87.34,"County_Lat":"31.508705","County_Long":"-82.850724","Store_Name":"Curry's WINGS & Things","Store_Lat":31.498708,"Store_Long":-82.850551,"Store_Address":"802 Peterson Ave S, Douglas, GA, 31533","Dist":0.6888337567},{"County_ID":634,"County_Name":"Coffee County","County_Income":"35,507.00","Poverty_Rate":87.34,"County_Lat":"31.508705","County_Long":"-82.850724","Store_Name":"Wendy's","Store_Lat":31.4872045089,"Store_Long":-82.8506027238,"Store_Address":"1404 Peterson Ave S, Douglas, GA, 31533","Dist":1.481324003},{"County_ID":634,"County_Name":"Coffee County","County_Income":"35,507.00","Poverty_Rate":87.34,"County_Lat":"31.508705","County_Long":"-82.850724","Store_Name":"Burger King","Store_Lat":31.4884192374,"Store_Long":-82.8505705297,"Store_Address":"1340 Peterson Ave S, Douglas, GA, 31533","Dist":1.3976457609},{"County_ID":634,"County_Name":"Coffee County","County_Income":"35,507.00","Poverty_Rate":87.34,"County_Lat":"31.508705","County_Long":"-82.850724","Store_Name":"Warrior Works Emporium and Eatery","Store_Lat":31.508401,"Store_Long":-82.849735,"Store_Address":"121 Ashley St E, Douglas, GA, 31533","Dist":0.0620205678},{"County_ID":634,"County_Name":"Coffee County","County_Income":"35,507.00","Poverty_Rate":87.34,"County_Lat":"31.508705","County_Long":"-82.850724","Store_Name":"Rally's","Store_Lat":31.495426,"Store_Long":-82.85062,"Store_Address":"1100 Peterson Ave S, Douglas, GA, 31533","Dist":0.9148966465},{"County_ID":634,"County_Name":"Coffee County","County_Income":"35,507.00","Poverty_Rate":87.34,"County_Lat":"31.508705","County_Long":"-82.850724","Store_Name":"Chick-Fil-A","Store_Lat":31.523731,"Store_Long":-82.8507,"Store_Address":"1305 Peterson Ave S, Douglas, GA, 31533","Dist":1.0352414202},{"County_ID":634,"County_Name":"Coffee County","County_Income":"35,507.00","Poverty_Rate":87.34,"County_Lat":"31.508705","County_Long":"-82.850724","Store_Name":"Mack's Milk","Store_Lat":31.524264,"Store_Long":-82.820575,"Store_Address":"1413 US Highway 221 N, Douglas, GA, 31533","Dist":2.0773754447},{"County_ID":634,"County_Name":"Coffee County","County_Income":"35,507.00","Poverty_Rate":87.34,"County_Lat":"31.508705","County_Long":"-82.850724","Store_Name":"Krispy Krunchy Chicken","Store_Lat":31.54064,"Store_Long":-82.925178,"Store_Address":"6582 GA Highway 32 W, Douglas, GA, 31533","Dist":4.9140719991},{"County_ID":635,"County_Name":"Colquitt County","County_Income":"37,418.00","Poverty_Rate":86.21,"County_Lat":"31.190741","County_Long":"-83.789843","Store_Name":"Chick-Fil-A","Store_Lat":31.1733753,"Store_Long":-83.7624996,"Store_Address":"502 Lane St, Moultrie, GA, 31768","Dist":2.0135298805},{"County_ID":635,"County_Name":"Colquitt County","County_Income":"37,418.00","Poverty_Rate":86.21,"County_Lat":"31.190741","County_Long":"-83.789843","Store_Name":"Sonic Drive-In","Store_Lat":31.1791154993,"Store_Long":-83.7785167899,"Store_Address":"3750 Commerce Dr, Moultrie, GA, 31768","Dist":1.0447436766},{"County_ID":635,"County_Name":"Colquitt County","County_Income":"37,418.00","Poverty_Rate":86.21,"County_Lat":"31.190741","County_Long":"-83.789843","Store_Name":"Firehouse Subs","Store_Lat":31.191031,"Store_Long":-83.763643,"Store_Address":"507 Veterans Pkwy N, Moultrie, GA, 31768","Dist":1.551824657},{"County_ID":635,"County_Name":"Colquitt County","County_Income":"37,418.00","Poverty_Rate":86.21,"County_Lat":"31.190741","County_Long":"-83.789843","Store_Name":"Little Caesars Pizza","Store_Lat":31.1790447235,"Store_Long":-83.7814559937,"Store_Address":"601 1st Ave SE, Moultrie, GA, 31768","Dist":0.9466063578},{"County_ID":635,"County_Name":"Colquitt County","County_Income":"37,418.00","Poverty_Rate":86.21,"County_Lat":"31.190741","County_Long":"-83.789843","Store_Name":"Arby's","Store_Lat":31.1907383767,"Store_Long":-83.7634130269,"Store_Address":"505 Veterans Pkwy N, Moultrie, GA, 31768","Dist":1.5653186234},{"County_ID":635,"County_Name":"Colquitt County","County_Income":"37,418.00","Poverty_Rate":86.21,"County_Lat":"31.190741","County_Long":"-83.789843","Store_Name":"Hardee's","Store_Lat":31.1771941393,"Store_Long":-83.7624370735,"Store_Address":"1729 1st Ave SE, Moultrie, GA, 31768","Dist":1.8724080926},{"County_ID":635,"County_Name":"Colquitt County","County_Income":"37,418.00","Poverty_Rate":86.21,"County_Lat":"31.190741","County_Long":"-83.789843","Store_Name":"Subway","Store_Lat":31.1801853376,"Store_Long":-83.790296962,"Store_Address":"100 W Central Ave, Moultrie, GA, 31768","Dist":0.727708708},{"County_ID":635,"County_Name":"Colquitt County","County_Income":"37,418.00","Poverty_Rate":86.21,"County_Lat":"31.190741","County_Long":"-83.789843","Store_Name":"Pizza Hut","Store_Lat":31.1902698406,"Store_Long":-83.7653992027,"Store_Address":"25 Doc Darbyshire Rd, Moultrie, GA, 31768","Dist":1.4480545129},{"County_ID":635,"County_Name":"Colquitt County","County_Income":"37,418.00","Poverty_Rate":86.21,"County_Lat":"31.190741","County_Long":"-83.789843","Store_Name":"Wendy's","Store_Lat":31.1768850662,"Store_Long":-83.7645104527,"Store_Address":"1716 1st Ave SE, Moultrie, GA, 31768","Dist":1.7783464606},{"County_ID":635,"County_Name":"Colquitt County","County_Income":"37,418.00","Poverty_Rate":86.21,"County_Lat":"31.190741","County_Long":"-83.789843","Store_Name":"Subway","Store_Lat":31.1906729693,"Store_Long":-83.7616477521,"Store_Address":"494 Veterans Pkwy N, Moultrie, GA, 31768","Dist":1.6698743947},{"County_ID":635,"County_Name":"Colquitt County","County_Income":"37,418.00","Poverty_Rate":86.21,"County_Lat":"31.190741","County_Long":"-83.789843","Store_Name":"KFC","Store_Lat":31.1757272184,"Store_Long":-83.7622993589,"Store_Address":"300 Lane St, Moultrie, GA, 31768","Dist":1.9316702371},{"County_ID":635,"County_Name":"Colquitt County","County_Income":"37,418.00","Poverty_Rate":86.21,"County_Lat":"31.190741","County_Long":"-83.789843","Store_Name":"Domino's Pizza","Store_Lat":31.1764916,"Store_Long":-83.7632846,"Store_Address":"1818 1st Ave SE, Moultrie, GA, 31768","Dist":1.8542294847},{"County_ID":635,"County_Name":"Colquitt County","County_Income":"37,418.00","Poverty_Rate":86.21,"County_Lat":"31.190741","County_Long":"-83.789843","Store_Name":"McDonald's","Store_Lat":31.1784617681,"Store_Long":-83.7822953349,"Store_Address":"506 First Avenue Southeast Atlanta Fld, Moultrie, GA, 31768","Dist":0.9568085766},{"County_ID":635,"County_Name":"Colquitt County","County_Income":"37,418.00","Poverty_Rate":86.21,"County_Lat":"31.190741","County_Long":"-83.789843","Store_Name":"Burger King","Store_Lat":31.1792119912,"Store_Long":-83.7744440138,"Store_Address":"1105 1st Ave SE, Moultrie, GA, 31768","Dist":1.2094296416},{"County_ID":635,"County_Name":"Colquitt County","County_Income":"37,418.00","Poverty_Rate":86.21,"County_Lat":"31.190741","County_Long":"-83.789843","Store_Name":"Taco Bell","Store_Lat":31.1908870605,"Store_Long":-83.7619098438,"Store_Address":"496 Veterans Pkwy N, Moultrie, GA, 31768","Dist":1.6543741389},{"County_ID":635,"County_Name":"Colquitt County","County_Income":"37,418.00","Poverty_Rate":86.21,"County_Lat":"31.190741","County_Long":"-83.789843","Store_Name":"Krystal","Store_Lat":31.190261,"Store_Long":-83.763023,"Store_Address":"497 Veterans Pkwy N, Moultrie, GA, 31768","Dist":1.5887661804},{"County_ID":635,"County_Name":"Colquitt County","County_Income":"37,418.00","Poverty_Rate":86.21,"County_Lat":"31.190741","County_Long":"-83.789843","Store_Name":"East Moultrie Sub","Store_Lat":31.18305,"Store_Long":-83.801667,"Store_Address":"486 Jo Stewart Rd, Moultrie, GA, 31768","Dist":0.8781667593},{"County_ID":635,"County_Name":"Colquitt County","County_Income":"37,418.00","Poverty_Rate":86.21,"County_Lat":"31.190741","County_Long":"-83.789843","Store_Name":"Zaxby's Chicken Fingers & Buffalo Wings","Store_Lat":31.190998,"Store_Long":-83.76359,"Store_Address":"507 Veterans Pkwy N, Moultrie, GA, 31768","Dist":1.5549360452},{"County_ID":635,"County_Name":"Colquitt County","County_Income":"37,418.00","Poverty_Rate":86.21,"County_Lat":"31.190741","County_Long":"-83.789843","Store_Name":"Krispy Krunchy Chicken","Store_Lat":31.171893,"Store_Long":-83.749208,"Store_Address":"2819 1st Ave SE, Moultrie, GA, 31768","Dist":2.7347805867},{"County_ID":644,"County_Name":"DeKalb County","County_Income":"56,428.00","Poverty_Rate":68.56,"County_Lat":"33.77435","County_Long":"-84.297124","Store_Name":"Chick-Fil-A","Store_Lat":33.7731075,"Store_Long":-84.296143,"Store_Address":"105 E Trinity Pl, Decatur, GA, 30030","Dist":0.1025740983},{"County_ID":644,"County_Name":"DeKalb County","County_Income":"56,428.00","Poverty_Rate":68.56,"County_Lat":"33.77435","County_Long":"-84.297124","Store_Name":"Grindhouse Killer Burgers","Store_Lat":33.7726469685,"Store_Long":-84.2963719881,"Store_Address":"433 N McDonough St, Decatur, GA, 30030","Dist":0.1251017419},{"County_ID":644,"County_Name":"DeKalb County","County_Income":"56,428.00","Poverty_Rate":68.56,"County_Lat":"33.77435","County_Long":"-84.297124","Store_Name":"Chick-Fil-A","Store_Lat":33.8101289,"Store_Long":-84.2742227,"Store_Address":"3905 N Druid Hills Rd, Decatur, GA, 30030","Dist":2.7959932917},{"County_ID":644,"County_Name":"DeKalb County","County_Income":"56,428.00","Poverty_Rate":68.56,"County_Lat":"33.77435","County_Long":"-84.297124","Store_Name":"Gusto","Store_Lat":33.7740864541,"Store_Long":-84.3617655237,"Store_Address":"782 Ponce De Leon Ave NE, Decatur, GA, 30030","Dist":3.7205944291},{"County_ID":644,"County_Name":"DeKalb County","County_Income":"56,428.00","Poverty_Rate":68.56,"County_Lat":"33.77435","County_Long":"-84.297124","Store_Name":"Delia's Chicken Sausage Stand","Store_Lat":33.74079784,"Store_Long":-84.3495376226,"Store_Address":"489 Moreland Ave SE, Decatur, GA, 30030","Dist":3.8015486284},{"County_ID":644,"County_Name":"DeKalb County","County_Income":"56,428.00","Poverty_Rate":68.56,"County_Lat":"33.77435","County_Long":"-84.297124","Store_Name":"Chipotle Mexican Grill","Store_Lat":33.775257,"Store_Long":-84.298713,"Store_Address":"198 W Ponce De Leon Ave, Decatur, GA, 30030","Dist":0.1107794369},{"County_ID":644,"County_Name":"DeKalb County","County_Income":"56,428.00","Poverty_Rate":68.56,"County_Lat":"33.77435","County_Long":"-84.297124","Store_Name":"Chick-Fil-A","Store_Lat":33.7956822,"Store_Long":-84.2858598,"Store_Address":"650 Decatur Village Way, Decatur, GA, 30030","Dist":1.6068153741},{"County_ID":644,"County_Name":"DeKalb County","County_Income":"56,428.00","Poverty_Rate":68.56,"County_Lat":"33.77435","County_Long":"-84.297124","Store_Name":"Popeyes Louisiana Kitchen","Store_Lat":33.7541160412,"Store_Long":-84.2696681727,"Store_Address":"3506 Memorial Dr, Decatur, GA, 30030","Dist":2.1077455844},{"County_ID":644,"County_Name":"DeKalb County","County_Income":"56,428.00","Poverty_Rate":68.56,"County_Lat":"33.77435","County_Long":"-84.297124","Store_Name":"Chick-Fil-A","Store_Lat":33.7423381,"Store_Long":-84.3585111,"Store_Address":"401 Bill Kennedy Way SE, Decatur, GA, 30030","Dist":4.1660679934},{"County_ID":644,"County_Name":"DeKalb County","County_Income":"56,428.00","Poverty_Rate":68.56,"County_Lat":"33.77435","County_Long":"-84.297124","Store_Name":"Willy's Mexicana Grill","Store_Lat":33.7839758062,"Store_Long":-84.3788244588,"Store_Address":"1071 Piedmont Ave NE, Decatur, GA, 30030","Dist":4.7487058775},{"County_ID":644,"County_Name":"DeKalb County","County_Income":"56,428.00","Poverty_Rate":68.56,"County_Lat":"33.77435","County_Long":"-84.297124","Store_Name":"Woody's Famous Philadelphia Cheesesteaks","Store_Lat":33.7809678807,"Store_Long":-84.3687415556,"Store_Address":"981 Monroe Dr NE, Decatur, GA, 30030","Dist":4.1470614979},{"County_ID":644,"County_Name":"DeKalb County","County_Income":"56,428.00","Poverty_Rate":68.56,"County_Lat":"33.77435","County_Long":"-84.297124","Store_Name":"Chick-Fil-A","Store_Lat":33.8275823,"Store_Long":-84.3286133,"Store_Address":"2340 N Druid Hills Rd NE, Decatur, GA, 30030","Dist":4.0918659472},{"County_ID":644,"County_Name":"DeKalb County","County_Income":"56,428.00","Poverty_Rate":68.56,"County_Lat":"33.77435","County_Long":"-84.297124","Store_Name":"MetroFresh","Store_Lat":33.7801731789,"Store_Long":-84.3684861385,"Store_Address":"931 Monroe Dr NE, Decatur, GA, 30030","Dist":4.1267831784},{"County_ID":644,"County_Name":"DeKalb County","County_Income":"56,428.00","Poverty_Rate":68.56,"County_Lat":"33.77435","County_Long":"-84.297124","Store_Name":"Willy's Mexicana Grill","Store_Lat":33.7586757849,"Store_Long":-84.3486318959,"Store_Address":"1230 Caroline St NE, Decatur, GA, 30030","Dist":3.1555635278},{"County_ID":644,"County_Name":"DeKalb County","County_Income":"56,428.00","Poverty_Rate":68.56,"County_Lat":"33.77435","County_Long":"-84.297124","Store_Name":"Jason's Deli","Store_Lat":33.7941213248,"Store_Long":-84.2832134197,"Store_Address":"1605 Church St, Decatur, GA, 30030","Dist":1.5804288543},{"County_ID":644,"County_Name":"DeKalb County","County_Income":"56,428.00","Poverty_Rate":68.56,"County_Lat":"33.77435","County_Long":"-84.297124","Store_Name":"The Food Shoppe","Store_Lat":33.7582533556,"Store_Long":-84.3905818288,"Store_Address":"123 Luckie St NW, Decatur, GA, 30030","Dist":5.4928161858},{"County_ID":644,"County_Name":"DeKalb County","County_Income":"56,428.00","Poverty_Rate":68.56,"County_Lat":"33.77435","County_Long":"-84.297124","Store_Name":"Refuge Coffee Co","Store_Lat":33.8095705734,"Store_Long":-84.2404310862,"Store_Address":"4170 E Ponce De Leon Ave, Decatur, GA, 30030","Dist":4.0664102487},{"County_ID":644,"County_Name":"DeKalb County","County_Income":"56,428.00","Poverty_Rate":68.56,"County_Lat":"33.77435","County_Long":"-84.297124","Store_Name":"Casseroles","Store_Lat":33.7920249216,"Store_Long":-84.3521872555,"Store_Address":"1393 N Highland Ave NE, Decatur, GA, 30030","Dist":3.395005871},{"County_ID":644,"County_Name":"DeKalb County","County_Income":"56,428.00","Poverty_Rate":68.56,"County_Lat":"33.77435","County_Long":"-84.297124","Store_Name":"Cook Out","Store_Lat":33.7742538397,"Store_Long":-84.3692204518,"Store_Address":"544 Ponce De Leon Ave NE, Decatur, GA, 30030","Dist":4.1496320782},{"County_ID":644,"County_Name":"DeKalb County","County_Income":"56,428.00","Poverty_Rate":68.56,"County_Lat":"33.77435","County_Long":"-84.297124","Store_Name":"Chick-Fil-A","Store_Lat":33.8254078,"Store_Long":-84.3676491,"Store_Address":"2580 Piedmont Rd NE, Decatur, GA, 30030","Dist":5.371264645},{"County_ID":644,"County_Name":"DeKalb County","County_Income":"56,428.00","Poverty_Rate":68.56,"County_Lat":"33.77435","County_Long":"-84.297124","Store_Name":"Cook Out","Store_Lat":33.7431852985,"Store_Long":-84.3496295033,"Store_Address":"403 Moreland Ave SE, Decatur, GA, 30030","Dist":3.7080358799},{"County_ID":644,"County_Name":"DeKalb County","County_Income":"56,428.00","Poverty_Rate":68.56,"County_Lat":"33.77435","County_Long":"-84.297124","Store_Name":"Five Guys Burgers & Fries","Store_Lat":33.778124,"Store_Long":-84.384598,"Store_Address":"860 Peachtree St NE, Decatur, GA, 30030","Dist":5.0413076949},{"County_ID":644,"County_Name":"DeKalb County","County_Income":"56,428.00","Poverty_Rate":68.56,"County_Lat":"33.77435","County_Long":"-84.297124","Store_Name":"Jason's Deli","Store_Lat":33.8464591039,"Store_Long":-84.3742602875,"Store_Address":"3330 Piedmont Rd NE, Decatur, GA, 30030","Dist":6.6628997084},{"County_ID":644,"County_Name":"DeKalb County","County_Income":"56,428.00","Poverty_Rate":68.56,"County_Lat":"33.77435","County_Long":"-84.297124","Store_Name":"The Varsity","Store_Lat":33.771557442,"Store_Long":-84.3892373659,"Store_Address":"61 North Ave NW, Decatur, GA, 30030","Dist":5.3053076531},{"County_ID":644,"County_Name":"DeKalb County","County_Income":"56,428.00","Poverty_Rate":68.56,"County_Lat":"33.77435","County_Long":"-84.297124","Store_Name":"Panera Bread","Store_Lat":33.7875206,"Store_Long":-84.3271615,"Store_Address":"1545 N Decatur Rd NE, Decatur, GA, 30030","Dist":1.9525550612},{"County_ID":658,"County_Name":"Forsyth County","County_Income":"67,859.00","Poverty_Rate":13.68,"County_Lat":"34.206598","County_Long":"-84.138697","Store_Name":"Chick-Fil-A","Store_Lat":34.1877192,"Store_Long":-84.1431874,"Store_Address":"653 Atlanta Hwy, Cumming, GA, 30040","Dist":1.3264137692},{"County_ID":658,"County_Name":"Forsyth County","County_Income":"67,859.00","Poverty_Rate":13.68,"County_Lat":"34.206598","County_Long":"-84.138697","Store_Name":"Cheeseburger Bobby's","Store_Lat":34.1812203377,"Store_Long":-84.1344748832,"Store_Address":"882 Buford Rd, Cumming, GA, 30040","Dist":1.7658204233},{"County_ID":658,"County_Name":"Forsyth County","County_Income":"67,859.00","Poverty_Rate":13.68,"County_Lat":"34.206598","County_Long":"-84.138697","Store_Name":"Rooster's Cafe","Store_Lat":34.2040262722,"Store_Long":-84.1365784865,"Store_Address":"216 Atlanta Rd, Cumming, GA, 30040","Dist":0.2148012898},{"County_ID":658,"County_Name":"Forsyth County","County_Income":"67,859.00","Poverty_Rate":13.68,"County_Lat":"34.206598","County_Long":"-84.138697","Store_Name":"Zaxby's","Store_Lat":34.218199,"Store_Long":-84.152733,"Store_Address":"520 Sawnee Corners Blvd, Cumming, GA, 30040","Dist":1.1337386474},{"County_ID":658,"County_Name":"Forsyth County","County_Income":"67,859.00","Poverty_Rate":13.68,"County_Lat":"34.206598","County_Long":"-84.138697","Store_Name":"Chipotle Mexican Grill","Store_Lat":34.1812161008,"Store_Long":-84.1330584184,"Store_Address":"905 Market Place Blvd, Cumming, GA, 30040","Dist":1.7790338486},{"County_ID":658,"County_Name":"Forsyth County","County_Income":"67,859.00","Poverty_Rate":13.68,"County_Lat":"34.206598","County_Long":"-84.138697","Store_Name":"Panera Bread","Store_Lat":34.186283579,"Store_Long":-84.141997844,"Store_Address":"500 Lakeland Plz, Cumming, GA, 30040","Dist":1.4128996864},{"County_ID":658,"County_Name":"Forsyth County","County_Income":"67,859.00","Poverty_Rate":13.68,"County_Lat":"34.206598","County_Long":"-84.138697","Store_Name":"Chick-Fil-A","Store_Lat":34.1528122,"Store_Long":-84.174733,"Store_Address":"430 Peachtree Pkwy, Cumming, GA, 30040","Dist":4.2432185846},{"County_ID":658,"County_Name":"Forsyth County","County_Income":"67,859.00","Poverty_Rate":13.68,"County_Lat":"34.206598","County_Long":"-84.138697","Store_Name":"Jersey Mike's","Store_Lat":34.180481,"Store_Long":-84.132231,"Store_Address":"906 Market Place Blvd, Cumming, GA, 30040","Dist":1.837843251},{"County_ID":658,"County_Name":"Forsyth County","County_Income":"67,859.00","Poverty_Rate":13.68,"County_Lat":"34.206598","County_Long":"-84.138697","Store_Name":"Hardee's","Store_Lat":34.2064177651,"Store_Long":-84.1412976475,"Store_Address":"125 W Maple St, Cumming, GA, 30040","Dist":0.1494457556},{"County_ID":658,"County_Name":"Forsyth County","County_Income":"67,859.00","Poverty_Rate":13.68,"County_Lat":"34.206598","County_Long":"-84.138697","Store_Name":"Zaxby's","Store_Lat":34.252049,"Store_Long":-84.090203,"Store_Address":"2810 Keith Bridge Rd, Cumming, GA, 30040","Dist":4.1859506897},{"County_ID":658,"County_Name":"Forsyth County","County_Income":"67,859.00","Poverty_Rate":13.68,"County_Lat":"34.206598","County_Long":"-84.138697","Store_Name":"Firehouse Subs","Store_Lat":34.181485,"Store_Long":-84.133455,"Store_Address":"905 Market Place Blvd, Cumming, GA, 30040","Dist":1.7567867484},{"County_ID":658,"County_Name":"Forsyth County","County_Income":"67,859.00","Poverty_Rate":13.68,"County_Lat":"34.206598","County_Long":"-84.138697","Store_Name":"MOD Pizza","Store_Lat":34.1784702,"Store_Long":-84.1319682,"Store_Address":"908 Buford Rd, Cumming, GA, 30040","Dist":1.976674485},{"County_ID":658,"County_Name":"Forsyth County","County_Income":"67,859.00","Poverty_Rate":13.68,"County_Lat":"34.206598","County_Long":"-84.138697","Store_Name":"Jimmy John's","Store_Lat":34.1782853769,"Store_Long":-84.1310396986,"Store_Address":"950 Buford Rd, Cumming, GA, 30040","Dist":2.0001548143},{"County_ID":658,"County_Name":"Forsyth County","County_Income":"67,859.00","Poverty_Rate":13.68,"County_Lat":"34.206598","County_Long":"-84.138697","Store_Name":"Zaxby's","Store_Lat":34.163421,"Store_Long":-84.17644,"Store_Address":"6020 Bethelview Rd, Cumming, GA, 30040","Dist":3.6784048077},{"County_ID":658,"County_Name":"Forsyth County","County_Income":"67,859.00","Poverty_Rate":13.68,"County_Lat":"34.206598","County_Long":"-84.138697","Store_Name":"Culver's","Store_Lat":34.172131,"Store_Long":-84.186862,"Store_Address":"5512 Bethelview Rd, Cumming, GA, 30040","Dist":3.6406945569},{"County_ID":658,"County_Name":"Forsyth County","County_Income":"67,859.00","Poverty_Rate":13.68,"County_Lat":"34.206598","County_Long":"-84.138697","Store_Name":"Bojangles' Famous Chicken 'n Biscuits","Store_Lat":34.258026,"Store_Long":-84.075519,"Store_Address":"3285 Keith Bridge Rd, Cumming, GA, 30040","Dist":5.0642722707},{"County_ID":658,"County_Name":"Forsyth County","County_Income":"67,859.00","Poverty_Rate":13.68,"County_Lat":"34.206598","County_Long":"-84.138697","Store_Name":"Subway","Store_Lat":34.1884521441,"Store_Long":-84.1427504967,"Store_Address":"1735 Buford Hwy, Cumming, GA, 30040","Dist":1.2720872967},{"County_ID":658,"County_Name":"Forsyth County","County_Income":"67,859.00","Poverty_Rate":13.68,"County_Lat":"34.206598","County_Long":"-84.138697","Store_Name":"Popeyes Louisiana Kitchen","Store_Lat":34.1843906554,"Store_Long":-84.1322566517,"Store_Address":"985 Market Place Blvd, Cumming, GA, 30040","Dist":1.5744837009},{"County_ID":658,"County_Name":"Forsyth County","County_Income":"67,859.00","Poverty_Rate":13.68,"County_Lat":"34.206598","County_Long":"-84.138697","Store_Name":"Wendy's","Store_Lat":34.1499910328,"Store_Long":-84.174264826,"Store_Address":"520 Peachtree Pkwy, Cumming, GA, 30040","Dist":4.401658724},{"County_ID":658,"County_Name":"Forsyth County","County_Income":"67,859.00","Poverty_Rate":13.68,"County_Lat":"34.206598","County_Long":"-84.138697","Store_Name":"Domino's Pizza","Store_Lat":34.2028896131,"Store_Long":-84.1356969327,"Store_Address":"241 Atlanta Rd, Cumming, GA, 30040","Dist":0.3079790159},{"County_ID":658,"County_Name":"Forsyth County","County_Income":"67,859.00","Poverty_Rate":13.68,"County_Lat":"34.206598","County_Long":"-84.138697","Store_Name":"Subway","Store_Lat":34.2222021149,"Store_Long":-84.1540238578,"Store_Address":"533 Canton Rd, Cumming, GA, 30040","Dist":1.3881646642},{"County_ID":658,"County_Name":"Forsyth County","County_Income":"67,859.00","Poverty_Rate":13.68,"County_Lat":"34.206598","County_Long":"-84.138697","Store_Name":"Papa John's Pizza","Store_Lat":34.2226173768,"Store_Long":-84.1539470117,"Store_Address":"535 Canton Rd, Cumming, GA, 30040","Dist":1.4077220984},{"County_ID":658,"County_Name":"Forsyth County","County_Income":"67,859.00","Poverty_Rate":13.68,"County_Lat":"34.206598","County_Long":"-84.138697","Store_Name":"Taco Bell","Store_Lat":34.1649359334,"Store_Long":-84.176272364,"Store_Address":"5945 Bethelview Rd, Cumming, GA, 30040","Dist":3.5886704381},{"County_ID":658,"County_Name":"Forsyth County","County_Income":"67,859.00","Poverty_Rate":13.68,"County_Lat":"34.206598","County_Long":"-84.138697","Store_Name":"Burger and Shake","Store_Lat":34.254270595,"Store_Long":-84.081820179,"Store_Address":"3040 Keith Bridge Rd, Cumming, GA, 30040","Dist":4.6260046225},{"County_ID":658,"County_Name":"Forsyth County","County_Income":"67,859.00","Poverty_Rate":13.68,"County_Lat":"34.206598","County_Long":"-84.138697","Store_Name":"McDonald's","Store_Lat":34.1640133,"Store_Long":-84.1178313,"Store_Address":"1635 Buford Highway Atlanta Fld, Cumming, GA, 30040","Dist":3.1692039161},{"County_ID":660,"County_Name":"Fulton County","County_Income":"95,683.00","Poverty_Rate":42.17,"County_Lat":"33.758231","County_Long":"-84.391101","Store_Name":"The Food Shoppe","Store_Lat":33.7582533556,"Store_Long":-84.3905818288,"Store_Address":"123 Luckie St NW, Atlanta, GA, 30303","Dist":0.0299269954},{"County_ID":660,"County_Name":"Fulton County","County_Income":"95,683.00","Poverty_Rate":42.17,"County_Lat":"33.758231","County_Long":"-84.391101","Store_Name":"Gusto","Store_Lat":33.7740864541,"Store_Long":-84.3617655237,"Store_Address":"782 Ponce De Leon Ave NE, Atlanta, GA, 30303","Dist":2.0113602485},{"County_ID":660,"County_Name":"Fulton County","County_Income":"95,683.00","Poverty_Rate":42.17,"County_Lat":"33.758231","County_Long":"-84.391101","Store_Name":"Willy's Mexicana Grill","Store_Lat":33.7839758062,"Store_Long":-84.3788244588,"Store_Address":"1071 Piedmont Ave NE, Atlanta, GA, 30303","Dist":1.9098942711},{"County_ID":660,"County_Name":"Fulton County","County_Income":"95,683.00","Poverty_Rate":42.17,"County_Lat":"33.758231","County_Long":"-84.391101","Store_Name":"Chick-Fil-A","Store_Lat":33.7848169,"Store_Long":-84.4079716,"Store_Address":"1100 Northside Dr NW, Atlanta, GA, 30303","Dist":2.0737381157},{"County_ID":660,"County_Name":"Fulton County","County_Income":"95,683.00","Poverty_Rate":42.17,"County_Lat":"33.758231","County_Long":"-84.391101","Store_Name":"The Varsity","Store_Lat":33.771557442,"Store_Long":-84.3892373659,"Store_Address":"61 North Ave NW, Atlanta, GA, 30303","Dist":0.9247195693},{"County_ID":660,"County_Name":"Fulton County","County_Income":"95,683.00","Poverty_Rate":42.17,"County_Lat":"33.758231","County_Long":"-84.391101","Store_Name":"Five Guys Burgers & Fries","Store_Lat":33.778124,"Store_Long":-84.384598,"Store_Address":"860 Peachtree St NE, Atlanta, GA, 30303","Dist":1.421231317},{"County_ID":660,"County_Name":"Fulton County","County_Income":"95,683.00","Poverty_Rate":42.17,"County_Lat":"33.758231","County_Long":"-84.391101","Store_Name":"Delia's Chicken Sausage Stand","Store_Lat":33.74079784,"Store_Long":-84.3495376226,"Store_Address":"489 Moreland Ave SE, Atlanta, GA, 30303","Dist":2.6776435172},{"County_ID":660,"County_Name":"Fulton County","County_Income":"95,683.00","Poverty_Rate":42.17,"County_Lat":"33.758231","County_Long":"-84.391101","Store_Name":"Chick-Fil-A","Store_Lat":33.7423381,"Store_Long":-84.3585111,"Store_Address":"401 Bill Kennedy Way SE, Atlanta, GA, 30303","Dist":2.1726160839},{"County_ID":660,"County_Name":"Fulton County","County_Income":"95,683.00","Poverty_Rate":42.17,"County_Lat":"33.758231","County_Long":"-84.391101","Store_Name":"Woody's Famous Philadelphia Cheesesteaks","Store_Lat":33.7809678807,"Store_Long":-84.3687415556,"Store_Address":"981 Monroe Dr NE, Atlanta, GA, 30303","Dist":2.0278182604},{"County_ID":660,"County_Name":"Fulton County","County_Income":"95,683.00","Poverty_Rate":42.17,"County_Lat":"33.758231","County_Long":"-84.391101","Store_Name":"MetroFresh","Store_Lat":33.7801731789,"Store_Long":-84.3684861385,"Store_Address":"931 Monroe Dr NE, Atlanta, GA, 30303","Dist":1.9953594266},{"County_ID":660,"County_Name":"Fulton County","County_Income":"95,683.00","Poverty_Rate":42.17,"County_Lat":"33.758231","County_Long":"-84.391101","Store_Name":"Cook Out","Store_Lat":33.7742538397,"Store_Long":-84.3692204518,"Store_Address":"544 Ponce De Leon Ave NE, Atlanta, GA, 30303","Dist":1.6750589792},{"County_ID":660,"County_Name":"Fulton County","County_Income":"95,683.00","Poverty_Rate":42.17,"County_Lat":"33.758231","County_Long":"-84.391101","Store_Name":"Cook Out","Store_Lat":33.7853154406,"Store_Long":-84.4077757746,"Store_Address":"1112 Northside Dr NW, Atlanta, GA, 30303","Dist":2.0989809197},{"County_ID":660,"County_Name":"Fulton County","County_Income":"95,683.00","Poverty_Rate":42.17,"County_Lat":"33.758231","County_Long":"-84.391101","Store_Name":"Willy's Mexicana Grill","Store_Lat":33.7586757849,"Store_Long":-84.3486318959,"Store_Address":"1230 Caroline St NE, Atlanta, GA, 30303","Dist":2.4450195462},{"County_ID":660,"County_Name":"Fulton County","County_Income":"95,683.00","Poverty_Rate":42.17,"County_Lat":"33.758231","County_Long":"-84.391101","Store_Name":"Willy's Mexicana Grill","Store_Lat":33.807160533,"Store_Long":-84.41311816,"Store_Address":"1920 Howell Mill Rd NW, Atlanta, GA, 30303","Dist":3.602493283},{"County_ID":660,"County_Name":"Fulton County","County_Income":"95,683.00","Poverty_Rate":42.17,"County_Lat":"33.758231","County_Long":"-84.391101","Store_Name":"McAlister's Deli","Store_Lat":33.7908326418,"Store_Long":-84.4073832643,"Store_Address":"1299 Northside Dr NW, Atlanta, GA, 30303","Dist":2.434551439},{"County_ID":660,"County_Name":"Fulton County","County_Income":"95,683.00","Poverty_Rate":42.17,"County_Lat":"33.758231","County_Long":"-84.391101","Store_Name":"Cook Out","Store_Lat":33.7431852985,"Store_Long":-84.3496295033,"Store_Address":"403 Moreland Ave SE, Atlanta, GA, 30303","Dist":2.6030741037},{"County_ID":660,"County_Name":"Fulton County","County_Income":"95,683.00","Poverty_Rate":42.17,"County_Lat":"33.758231","County_Long":"-84.391101","Store_Name":"Chick-Fil-A","Store_Lat":33.8069835,"Store_Long":-84.3934342,"Store_Address":"1901 Peachtree Rd NE, Atlanta, GA, 30303","Dist":3.3627782786},{"County_ID":660,"County_Name":"Fulton County","County_Income":"95,683.00","Poverty_Rate":42.17,"County_Lat":"33.758231","County_Long":"-84.391101","Store_Name":"Chick-Fil-A","Store_Lat":33.8076761,"Store_Long":-84.4130785,"Store_Address":"1942 Howell Mill Rd NW, Atlanta, GA, 30303","Dist":3.6349818374},{"County_ID":660,"County_Name":"Fulton County","County_Income":"95,683.00","Poverty_Rate":42.17,"County_Lat":"33.758231","County_Long":"-84.391101","Store_Name":"Chick-Fil-A","Store_Lat":33.8254078,"Store_Long":-84.3676491,"Store_Address":"2580 Piedmont Rd NE, Atlanta, GA, 30303","Dist":4.8226069446},{"County_ID":660,"County_Name":"Fulton County","County_Income":"95,683.00","Poverty_Rate":42.17,"County_Lat":"33.758231","County_Long":"-84.391101","Store_Name":"Casseroles","Store_Lat":33.7920249216,"Store_Long":-84.3521872555,"Store_Address":"1393 N Highland Ave NE, Atlanta, GA, 30303","Dist":3.2312811094},{"County_ID":660,"County_Name":"Fulton County","County_Income":"95,683.00","Poverty_Rate":42.17,"County_Lat":"33.758231","County_Long":"-84.391101","Store_Name":"Shake Shack","Store_Lat":33.753587,"Store_Long":-84.365192,"Store_Address":"670 Dekalb Ave SE, Atlanta, GA, 30303","Dist":1.5255078281},{"County_ID":660,"County_Name":"Fulton County","County_Income":"95,683.00","Poverty_Rate":42.17,"County_Lat":"33.758231","County_Long":"-84.391101","Store_Name":"Chick-Fil-A","Store_Lat":33.8474858,"Store_Long":-84.428791,"Store_Address":"3419 Northside Pkwy NW, Atlanta, GA, 30303","Dist":6.5226461638},{"County_ID":660,"County_Name":"Fulton County","County_Income":"95,683.00","Poverty_Rate":42.17,"County_Lat":"33.758231","County_Long":"-84.391101","Store_Name":"Shake Shack","Store_Lat":33.8377381673,"Store_Long":-84.3809474943,"Store_Address":"3035 Peachtree Road NE Between Bolling Way and NE, Atlanta, GA, 30303","Dist":5.5108255091},{"County_ID":660,"County_Name":"Fulton County","County_Income":"95,683.00","Poverty_Rate":42.17,"County_Lat":"33.758231","County_Long":"-84.391101","Store_Name":"Jason's Deli","Store_Lat":33.8464591039,"Store_Long":-84.3742602875,"Store_Address":"3330 Piedmont Rd NE, Atlanta, GA, 30303","Dist":6.157553458},{"County_ID":660,"County_Name":"Fulton County","County_Income":"95,683.00","Poverty_Rate":42.17,"County_Lat":"33.758231","County_Long":"-84.391101","Store_Name":"Panera Bread","Store_Lat":33.7840004309,"Store_Long":-84.3842057265,"Store_Address":"1080 Peachtree St NE, Atlanta, GA, 30303","Dist":1.8198689776},{"County_ID":667,"County_Name":"Gwinnett County","County_Income":"46,886.00","Poverty_Rate":50.3,"County_Lat":"33.966996","County_Long":"-83.99421","Store_Name":"Chick-Fil-A","Store_Lat":33.9656175,"Store_Long":-84.0108543,"Store_Address":"680 Duluth Hwy, Lawrenceville, GA, 30046","Dist":0.9605573378},{"County_ID":667,"County_Name":"Gwinnett County","County_Income":"46,886.00","Poverty_Rate":50.3,"County_Lat":"33.966996","County_Long":"-83.99421","Store_Name":"Panera Bread","Store_Lat":33.971375,"Store_Long":-84.017551,"Store_Address":"911 Lawrenceville Suwanee Rd, Lawrenceville, GA, 30046","Dist":1.3739392691},{"County_ID":667,"County_Name":"Gwinnett County","County_Income":"46,886.00","Poverty_Rate":50.3,"County_Lat":"33.966996","County_Long":"-83.99421","Store_Name":"Dq Grill & Chill","Store_Lat":33.9568776727,"Store_Long":-83.9808547497,"Store_Address":"611 E Crogan St, Lawrenceville, GA, 30046","Dist":1.0366520482},{"County_ID":667,"County_Name":"Gwinnett County","County_Income":"46,886.00","Poverty_Rate":50.3,"County_Lat":"33.966996","County_Long":"-83.99421","Store_Name":"Chipotle Mexican Grill","Store_Lat":33.967097,"Store_Long":-84.022464,"Store_Address":"860 Duluth Hwy, Lawrenceville, GA, 30046","Dist":1.6225682527},{"County_ID":667,"County_Name":"Gwinnett County","County_Income":"46,886.00","Poverty_Rate":50.3,"County_Lat":"33.966996","County_Long":"-83.99421","Store_Name":"Five Guys Burgers & Fries","Store_Lat":33.9663364,"Store_Long":-84.0241697,"Store_Address":"798 Lawrenceville Suwanee Rd, Lawrenceville, GA, 30046","Dist":1.7211153936},{"County_ID":667,"County_Name":"Gwinnett County","County_Income":"46,886.00","Poverty_Rate":50.3,"County_Lat":"33.966996","County_Long":"-83.99421","Store_Name":"Chick-Fil-A","Store_Lat":33.95741,"Store_Long":-84.0576959,"Store_Address":"4965 Sugarloaf Pkwy, Lawrenceville, GA, 30046","Dist":3.7054153191},{"County_ID":667,"County_Name":"Gwinnett County","County_Income":"46,886.00","Poverty_Rate":50.3,"County_Lat":"33.966996","County_Long":"-83.99421","Store_Name":"Jimmy John's","Store_Lat":33.962683,"Store_Long":-84.006161,"Store_Address":"531 W Pike St, Lawrenceville, GA, 30046","Dist":0.7479438596},{"County_ID":667,"County_Name":"Gwinnett County","County_Income":"46,886.00","Poverty_Rate":50.3,"County_Lat":"33.966996","County_Long":"-83.99421","Store_Name":"Popeyes Louisiana Kitchen","Store_Lat":33.9447751248,"Store_Long":-83.9842520968,"Store_Address":"290 Grayson Hwy, Lawrenceville, GA, 30046","Dist":1.6348451235},{"County_ID":667,"County_Name":"Gwinnett County","County_Income":"46,886.00","Poverty_Rate":50.3,"County_Lat":"33.966996","County_Long":"-83.99421","Store_Name":"Chick-Fil-A","Store_Lat":33.887652,"Store_Long":-84.0100388,"Store_Address":"1559 Scenic Hwy N, Lawrenceville, GA, 30046","Dist":5.5437403447},{"County_ID":667,"County_Name":"Gwinnett County","County_Income":"46,886.00","Poverty_Rate":50.3,"County_Lat":"33.966996","County_Long":"-83.99421","Store_Name":"Culver's","Store_Lat":33.9064626922,"Store_Long":-84.00404559,"Store_Address":"1133 Scenic Hwy, Lawrenceville, GA, 30046","Dist":4.2102391415},{"County_ID":667,"County_Name":"Gwinnett County","County_Income":"46,886.00","Poverty_Rate":50.3,"County_Lat":"33.966996","County_Long":"-83.99421","Store_Name":"Steak 'n Shake","Store_Lat":33.9700518012,"Store_Long":-84.0211080015,"Store_Address":"820 Lawrenceville Suwanee Rd, Lawrenceville, GA, 30046","Dist":1.5589480475},{"County_ID":667,"County_Name":"Gwinnett County","County_Income":"46,886.00","Poverty_Rate":50.3,"County_Lat":"33.966996","County_Long":"-83.99421","Store_Name":"Panera Bread","Store_Lat":33.8784992811,"Store_Long":-84.0131144819,"Store_Address":"1905 Scenic Hwy N, Lawrenceville, GA, 30046","Dist":6.1954276022},{"County_ID":667,"County_Name":"Gwinnett County","County_Income":"46,886.00","Poverty_Rate":50.3,"County_Lat":"33.966996","County_Long":"-83.99421","Store_Name":"Chick-Fil-A","Store_Lat":34.0002596,"Store_Long":-83.9081939,"Store_Address":"545 Dacula Rd, Lawrenceville, GA, 30046","Dist":5.4449258166},{"County_ID":667,"County_Name":"Gwinnett County","County_Income":"46,886.00","Poverty_Rate":50.3,"County_Lat":"33.966996","County_Long":"-83.99421","Store_Name":"Chick-Fil-A","Store_Lat":33.987776,"Store_Long":-84.08823,"Store_Address":"2020 Satellite Blvd, Lawrenceville, GA, 30046","Dist":5.5854205284},{"County_ID":667,"County_Name":"Gwinnett County","County_Income":"46,886.00","Poverty_Rate":50.3,"County_Lat":"33.966996","County_Long":"-83.99421","Store_Name":"Five Guys Burgers & Fries","Store_Lat":34.0019985,"Store_Long":-84.0827602,"Store_Address":"1611 Satellite Blvd, Lawrenceville, GA, 30046","Dist":5.6275158745},{"County_ID":667,"County_Name":"Gwinnett County","County_Income":"46,886.00","Poverty_Rate":50.3,"County_Lat":"33.966996","County_Long":"-83.99421","Store_Name":"Panda Express","Store_Lat":33.9671731394,"Store_Long":-84.0235730187,"Store_Address":"900 Duluth Hwy, Lawrenceville, GA, 30046","Dist":1.6862848108},{"County_ID":667,"County_Name":"Gwinnett County","County_Income":"46,886.00","Poverty_Rate":50.3,"County_Lat":"33.966996","County_Long":"-83.99421","Store_Name":"Zaxby's","Store_Lat":33.897516,"Store_Long":-83.96028,"Store_Address":"1931 Grayson Hwy, Lawrenceville, GA, 30046","Dist":5.1703223531},{"County_ID":667,"County_Name":"Gwinnett County","County_Income":"46,886.00","Poverty_Rate":50.3,"County_Lat":"33.966996","County_Long":"-83.99421","Store_Name":"Firehouse Subs","Store_Lat":33.877466,"Store_Long":-84.011868,"Store_Address":"1830 Scenic Hwy N, Lawrenceville, GA, 30046","Dist":6.2535362523},{"County_ID":667,"County_Name":"Gwinnett County","County_Income":"46,886.00","Poverty_Rate":50.3,"County_Lat":"33.966996","County_Long":"-83.99421","Store_Name":"Zaxby's","Store_Lat":33.987985,"Store_Long":-83.891107,"Store_Address":"2620 Winder Hwy, Lawrenceville, GA, 30046","Dist":6.0943966098},{"County_ID":667,"County_Name":"Gwinnett County","County_Income":"46,886.00","Poverty_Rate":50.3,"County_Lat":"33.966996","County_Long":"-83.99421","Store_Name":"Chick-Fil-A","Store_Lat":34.0253335,"Store_Long":-84.0439912,"Store_Address":"2835 Lawrenceville Suwanee Rd, Lawrenceville, GA, 30046","Dist":4.9329921483},{"County_ID":667,"County_Name":"Gwinnett County","County_Income":"46,886.00","Poverty_Rate":50.3,"County_Lat":"33.966996","County_Long":"-83.99421","Store_Name":"My Friend's Place","Store_Lat":33.9992963195,"Store_Long":-84.0931964165,"Store_Address":"6601 Sugarloaf Pkwy, Lawrenceville, GA, 30046","Dist":6.1039283601},{"County_ID":667,"County_Name":"Gwinnett County","County_Income":"46,886.00","Poverty_Rate":50.3,"County_Lat":"33.966996","County_Long":"-83.99421","Store_Name":"Panera Bread","Store_Lat":33.9557864,"Store_Long":-84.0548478,"Store_Address":"4875 Sugarloaf Pkwy, Lawrenceville, GA, 30046","Dist":3.5671738819},{"County_ID":667,"County_Name":"Gwinnett County","County_Income":"46,886.00","Poverty_Rate":50.3,"County_Lat":"33.966996","County_Long":"-83.99421","Store_Name":"Sonic Drive-In","Store_Lat":33.9440909,"Store_Long":-83.9848637,"Store_Address":"32 N Potomac St, Lawrenceville, GA, 30046","Dist":1.6674680929},{"County_ID":667,"County_Name":"Gwinnett County","County_Income":"46,886.00","Poverty_Rate":50.3,"County_Lat":"33.966996","County_Long":"-83.99421","Store_Name":"Zaxby's","Store_Lat":33.976525,"Store_Long":-84.08025,"Store_Address":"1914 Duluth Hwy, Lawrenceville, GA, 30046","Dist":4.9842403896},{"County_ID":667,"County_Name":"Gwinnett County","County_Income":"46,886.00","Poverty_Rate":50.3,"County_Lat":"33.966996","County_Long":"-83.99421","Store_Name":"Chipotle Mexican Grill","Store_Lat":33.8824081877,"Store_Long":-84.010508654,"Store_Address":"1650 Scenic Highway S, Lawrenceville, GA, 30046","Dist":5.9047849163},{"County_ID":683,"County_Name":"Johnson County","County_Income":"27,965.00","Poverty_Rate":94.38,"County_Lat":"32.730663","County_Long":"-82.719275","Store_Name":"Subway","Store_Lat":32.7305902761,"Store_Long":-82.7189854258,"Store_Address":"201 N Bradford St, Wrightsville, GA, 31096","Dist":0.0175949941},{"County_ID":692,"County_Name":"Lowndes County","County_Income":"41,117.00","Poverty_Rate":43.76,"County_Lat":"30.84189","County_Long":"-83.27888","Store_Name":"The Mix","Store_Lat":30.8471640955,"Store_Long":-83.3034646166,"Store_Address":"1803 Jerry Jones Dr, Valdosta, GA, 31602","Dist":1.5057915235},{"County_ID":692,"County_Name":"Lowndes County","County_Income":"41,117.00","Poverty_Rate":43.76,"County_Lat":"30.84189","County_Long":"-83.27888","Store_Name":"Chick-Fil-A","Store_Lat":30.8394546,"Store_Long":-83.3202227,"Store_Address":"1100 N Saint Augustine Rd, Valdosta, GA, 31602","Dist":2.463213709},{"County_ID":692,"County_Name":"Lowndes County","County_Income":"41,117.00","Poverty_Rate":43.76,"County_Lat":"30.84189","County_Long":"-83.27888","Store_Name":"Hip Hop Fish & Chicken","Store_Lat":30.8221235844,"Store_Long":-83.2746881247,"Store_Address":"702 S Patterson St, Valdosta, GA, 31602","Dist":1.3843082956},{"County_ID":692,"County_Name":"Lowndes County","County_Income":"41,117.00","Poverty_Rate":43.76,"County_Lat":"30.84189","County_Long":"-83.27888","Store_Name":"Zaxby's","Store_Lat":30.882088,"Store_Long":-83.290823,"Store_Address":"3250 Inner Perimeter Rd, Valdosta, GA, 31602","Dist":2.8587339353},{"County_ID":692,"County_Name":"Lowndes County","County_Income":"41,117.00","Poverty_Rate":43.76,"County_Lat":"30.84189","County_Long":"-83.27888","Store_Name":"Church's Chicken","Store_Lat":30.8324973894,"Store_Long":-83.2751575452,"Store_Address":"320 E Hill Ave, Valdosta, GA, 31602","Dist":0.683841088},{"County_ID":692,"County_Name":"Lowndes County","County_Income":"41,117.00","Poverty_Rate":43.76,"County_Lat":"30.84189","County_Long":"-83.27888","Store_Name":"Chick-Fil-A","Store_Lat":30.879901,"Store_Long":-83.296943,"Store_Address":"3147 Inner Perimeter Rd, Valdosta, GA, 31602","Dist":2.8300561341},{"County_ID":692,"County_Name":"Lowndes County","County_Income":"41,117.00","Poverty_Rate":43.76,"County_Lat":"30.84189","County_Long":"-83.27888","Store_Name":"Cook Out","Store_Lat":30.83802,"Store_Long":-83.31777,"Store_Address":"990 N Saint Augustine Rd, Valdosta, GA, 31602","Dist":2.3270395144},{"County_ID":692,"County_Name":"Lowndes County","County_Income":"41,117.00","Poverty_Rate":43.76,"County_Lat":"30.84189","County_Long":"-83.27888","Store_Name":"Barberitos","Store_Lat":30.8466397786,"Store_Long":-83.3105466121,"Store_Address":"1337 Baytree Rd, Valdosta, GA, 31602","Dist":1.9104863076},{"County_ID":692,"County_Name":"Lowndes County","County_Income":"41,117.00","Poverty_Rate":43.76,"County_Lat":"30.84189","County_Long":"-83.27888","Store_Name":"Wendy's","Store_Lat":30.8434291098,"Store_Long":-83.327340562,"Store_Address":"1303 N Saint Augustine Rd, Valdosta, GA, 31602","Dist":2.8824848373},{"County_ID":692,"County_Name":"Lowndes County","County_Income":"41,117.00","Poverty_Rate":43.76,"County_Lat":"30.84189","County_Long":"-83.27888","Store_Name":"Chick-Fil-A","Store_Lat":30.8436508,"Store_Long":-83.3203352,"Store_Address":"1700 Norman Dr, Valdosta, GA, 31602","Dist":2.4671108335},{"County_ID":692,"County_Name":"Lowndes County","County_Income":"41,117.00","Poverty_Rate":43.76,"County_Lat":"30.84189","County_Long":"-83.27888","Store_Name":"Firehouse Subs","Store_Lat":30.846677,"Store_Long":-83.317128,"Store_Address":"1525 Baytree Rd, Valdosta, GA, 31602","Dist":2.2972460765},{"County_ID":692,"County_Name":"Lowndes County","County_Income":"41,117.00","Poverty_Rate":43.76,"County_Lat":"30.84189","County_Long":"-83.27888","Store_Name":"Firehouse Subs","Store_Lat":30.864908,"Store_Long":-83.284631,"Store_Address":"2525 N Ashley St, Valdosta, GA, 31602","Dist":1.6221194516},{"County_ID":692,"County_Name":"Lowndes County","County_Income":"41,117.00","Poverty_Rate":43.76,"County_Lat":"30.84189","County_Long":"-83.27888","Store_Name":"Popeyes Louisiana Kitchen","Store_Lat":30.859069828,"Store_Long":-83.280433185,"Store_Address":"2119 Bemiss Rd, Valdosta, GA, 31602","Dist":1.1871042174},{"County_ID":692,"County_Name":"Lowndes County","County_Income":"41,117.00","Poverty_Rate":43.76,"County_Lat":"30.84189","County_Long":"-83.27888","Store_Name":"Zaxby's","Store_Lat":30.839919,"Store_Long":-83.321237,"Store_Address":"1102 N Saint Augustine Rd, Valdosta, GA, 31602","Dist":2.521437997},{"County_ID":692,"County_Name":"Lowndes County","County_Income":"41,117.00","Poverty_Rate":43.76,"County_Lat":"30.84189","County_Long":"-83.27888","Store_Name":"Subway","Store_Lat":30.8593729159,"Store_Long":-83.2824615336,"Store_Address":"2172 N Ashley St, Valdosta, GA, 31602","Dist":1.2230564232},{"County_ID":692,"County_Name":"Lowndes County","County_Income":"41,117.00","Poverty_Rate":43.76,"County_Lat":"30.84189","County_Long":"-83.27888","Store_Name":"Subway","Store_Lat":30.8371731388,"Store_Long":-83.2800104926,"Store_Address":"602 N Ashley St, Valdosta, GA, 31602","Dist":0.3318173994},{"County_ID":692,"County_Name":"Lowndes County","County_Income":"41,117.00","Poverty_Rate":43.76,"County_Lat":"30.84189","County_Long":"-83.27888","Store_Name":"McDonald's","Store_Lat":30.8580934132,"Store_Long":-83.2817697089,"Store_Address":"2102 N Ashley St Atlanta Fld, Valdosta, GA, 31602","Dist":1.1293808745},{"County_ID":692,"County_Name":"Lowndes County","County_Income":"41,117.00","Poverty_Rate":43.76,"County_Lat":"30.84189","County_Long":"-83.27888","Store_Name":"Bojangles' Famous Chicken 'n Biscuits","Store_Lat":30.8212620969,"Store_Long":-83.3091794314,"Store_Address":"1725 W Hill Ave, Valdosta, GA, 31602","Dist":2.2942939286},{"County_ID":692,"County_Name":"Lowndes County","County_Income":"41,117.00","Poverty_Rate":43.76,"County_Lat":"30.84189","County_Long":"-83.27888","Store_Name":"Checkers","Store_Lat":30.858744938,"Store_Long":-83.2812783122,"Store_Address":"2129 N Ashley St, Valdosta, GA, 31602","Dist":1.1698449558},{"County_ID":692,"County_Name":"Lowndes County","County_Income":"41,117.00","Poverty_Rate":43.76,"County_Lat":"30.84189","County_Long":"-83.27888","Store_Name":"Jimmy John's","Store_Lat":30.8466041233,"Store_Long":-83.3104567219,"Store_Address":"1337 Baytree Rd, Valdosta, GA, 31602","Dist":1.904802451},{"County_ID":692,"County_Name":"Lowndes County","County_Income":"41,117.00","Poverty_Rate":43.76,"County_Lat":"30.84189","County_Long":"-83.27888","Store_Name":"Sonic Drive-In","Store_Lat":30.8232397,"Store_Long":-83.3061618,"Store_Address":"11 Dartmouth St, Valdosta, GA, 31602","Dist":2.0690652412},{"County_ID":692,"County_Name":"Lowndes County","County_Income":"41,117.00","Poverty_Rate":43.76,"County_Lat":"30.84189","County_Long":"-83.27888","Store_Name":"Jersey Mike's","Store_Lat":30.872214,"Store_Long":-83.288941,"Store_Address":"2941 N Ashley St, Valdosta, GA, 31602","Dist":2.1728980866},{"County_ID":692,"County_Name":"Lowndes County","County_Income":"41,117.00","Poverty_Rate":43.76,"County_Lat":"30.84189","County_Long":"-83.27888","Store_Name":"Panera Bread","Store_Lat":30.8398533626,"Store_Long":-83.3194971085,"Store_Address":"1173 N Saint Augustine Rd, Valdosta, GA, 31602","Dist":2.4184309956},{"County_ID":692,"County_Name":"Lowndes County","County_Income":"41,117.00","Poverty_Rate":43.76,"County_Lat":"30.84189","County_Long":"-83.27888","Store_Name":"KFC","Store_Lat":30.8421437283,"Store_Long":-83.3262274435,"Store_Address":"1300 N Saint Augustine Rd, Valdosta, GA, 31602","Dist":2.8144425183},{"County_ID":692,"County_Name":"Lowndes County","County_Income":"41,117.00","Poverty_Rate":43.76,"County_Lat":"30.84189","County_Long":"-83.27888","Store_Name":"Wendy's","Store_Lat":30.8217008334,"Store_Long":-83.3105350938,"Store_Address":"1812 W Hill Ave, Valdosta, GA, 31602","Dist":2.3400005696},{"County_ID":703,"County_Name":"Montgomery County","County_Income":"34,061.00","Poverty_Rate":94.83,"County_Lat":"32.174174","County_Long":"-82.594652","Store_Name":"Subway","Store_Lat":32.1789463993,"Store_Long":-82.5965267714,"Store_Address":"124 W Spring St, Mount Vernon, GA, 30445","Dist":0.3467043671},{"County_ID":703,"County_Name":"Montgomery County","County_Income":"34,061.00","Poverty_Rate":94.83,"County_Lat":"32.174174","County_Long":"-82.594652","Store_Name":"Krispy Krunchy Chicken","Store_Lat":32.178564,"Store_Long":-82.594466,"Store_Address":"102 E Spring St, Mount Vernon, GA, 30445","Dist":0.302683871},{"County_ID":750,"County_Name":"Washington County","County_Income":"39,151.00","Poverty_Rate":85.62,"County_Lat":"32.983578","County_Long":"-82.811602","Store_Name":"Zaxby's","Store_Lat":32.972967,"Store_Long":-82.808922,"Store_Address":"600 S Harris St, Sandersville, GA, 31082","Dist":0.7476164254},{"County_ID":750,"County_Name":"Washington County","County_Income":"39,151.00","Poverty_Rate":85.62,"County_Lat":"32.983578","County_Long":"-82.811602","Store_Name":"Dairy Lane","Store_Lat":32.9662208534,"Store_Long":-82.8088689472,"Store_Address":"839 S Harris St, Sandersville, GA, 31082","Dist":1.2066137914},{"County_ID":750,"County_Name":"Washington County","County_Income":"39,151.00","Poverty_Rate":85.62,"County_Lat":"32.983578","County_Long":"-82.811602","Store_Name":"McDonald's","Store_Lat":32.9717880249,"Store_Long":-82.8087441623,"Store_Address":"702 S Harris Atlanta Field Office, Sandersville, GA, 31082","Dist":0.8292608562},{"County_ID":750,"County_Name":"Washington County","County_Income":"39,151.00","Poverty_Rate":85.62,"County_Lat":"32.983578","County_Long":"-82.811602","Store_Name":"Pizza Hut","Store_Lat":32.9732101454,"Store_Long":-82.809818387,"Store_Address":"610 S Harris St, Sandersville, GA, 31082","Dist":0.7219472804},{"County_ID":750,"County_Name":"Washington County","County_Income":"39,151.00","Poverty_Rate":85.62,"County_Lat":"32.983578","County_Long":"-82.811602","Store_Name":"Wendy's","Store_Lat":32.9732392482,"Store_Long":-82.8082673997,"Store_Address":"611 S Harris St, Sandersville, GA, 31082","Dist":0.7383272808},{"County_ID":750,"County_Name":"Washington County","County_Income":"39,151.00","Poverty_Rate":85.62,"County_Lat":"32.983578","County_Long":"-82.811602","Store_Name":"Subway","Store_Lat":32.9726756754,"Store_Long":-82.8103809016,"Store_Address":"630 S Harris St, Sandersville, GA, 31082","Dist":0.7546475884},{"County_ID":750,"County_Name":"Washington County","County_Income":"39,151.00","Poverty_Rate":85.62,"County_Lat":"32.983578","County_Long":"-82.811602","Store_Name":"KFC","Store_Lat":32.9696008859,"Store_Long":-82.8083635759,"Store_Address":"727 S Harris St, Sandersville, GA, 31082","Dist":0.9813939107},{"County_ID":750,"County_Name":"Washington County","County_Income":"39,151.00","Poverty_Rate":85.62,"County_Lat":"32.983578","County_Long":"-82.811602","Store_Name":"Hardee's","Store_Lat":32.9524553918,"Store_Long":-82.8094767791,"Store_Address":"195 Walmart Cir, Sandersville, GA, 31082","Dist":2.1482856598},{"County_ID":757,"County_Name":"Wilkes County","County_Income":"42,093.00","Poverty_Rate":94.17,"County_Lat":"33.746467","County_Long":"-82.740314","Store_Name":"Subway","Store_Lat":33.728224,"Store_Long":-82.719052,"Store_Address":"918 E Robert Toombs Ave, Washington, GA, 30673","Dist":1.7549255674},{"County_ID":757,"County_Name":"Wilkes County","County_Income":"42,093.00","Poverty_Rate":94.17,"County_Lat":"33.746467","County_Long":"-82.740314","Store_Name":"Zaxby's","Store_Lat":33.727722,"Store_Long":-82.716401,"Store_Address":"1011 E Robert Toombs Ave, Washington, GA, 30673","Dist":1.8881334653},{"County_ID":757,"County_Name":"Wilkes County","County_Income":"42,093.00","Poverty_Rate":94.17,"County_Lat":"33.746467","County_Long":"-82.740314","Store_Name":"McDonald's","Store_Lat":33.7265941215,"Store_Long":-82.7161348611,"Store_Address":"1018 E Robert Toombs Avenue Atlanta Fld, Washington, GA, 30673","Dist":1.9530507455},{"County_ID":757,"County_Name":"Wilkes County","County_Income":"42,093.00","Poverty_Rate":94.17,"County_Lat":"33.746467","County_Long":"-82.740314","Store_Name":"Krispy Krunchy Chicken","Store_Lat":33.737032,"Store_Long":-82.737218,"Store_Address":"117 E Robert Toombs Ave, Washington, GA, 30673","Dist":0.6742617468}]