[{"County_ID":605,"County_Name":"Baldwin County","County_Income":"36,399.00","Poverty_Rate":92.88,"County_Lat":33.081466,"County_Long":-83.228206,"Store_Name":"Linger Longer Steakhouse","Store_Lat":33.4395866,"Store_Long":-83.1974792,"Store_Address":"1 Lake Oconee Trail, Greensboro","Dist":24.7441667527},{"County_ID":605,"County_Name":"Baldwin County","County_Income":"36,399.00","Poverty_Rate":92.88,"County_Lat":33.081466,"County_Long":-83.228206,"Store_Name":"Gaby's by the Lake","Store_Lat":33.4387125,"Store_Long":-83.1924337,"Store_Address":"1 Lake Oconee Trail, Greensboro","Dist":24.7068545937},{"County_ID":605,"County_Name":"Baldwin County","County_Income":"36,399.00","Poverty_Rate":92.88,"County_Lat":33.081466,"County_Long":-83.228206,"Store_Name":"Ruby Tuesday","Store_Lat":33.110224,"Store_Long":-83.256479,"Store_Address":"2440 North Columbia Street, Milledgeville","Dist":2.5724047391},{"County_ID":605,"County_Name":"Baldwin County","County_Income":"36,399.00","Poverty_Rate":92.88,"County_Lat":33.081466,"County_Long":-83.228206,"Store_Name":"Subway","Store_Lat":33.2954859,"Store_Long":-83.3889709,"Store_Address":"201 Walmart Drive, Eatonton","Dist":17.44469671},{"County_ID":631,"County_Name":"Clayton County","County_Income":"32,702.00","Poverty_Rate":92.55,"County_Lat":33.506014,"County_Long":-84.357362,"Store_Name":"Hyatt Regency Atlanta","Store_Lat":33.7613755,"Store_Long":-84.3873556,"Store_Address":"265 Peachtree Street Northeast, Atlanta","Dist":17.6842170301},{"County_ID":631,"County_Name":"Clayton County","County_Income":"32,702.00","Poverty_Rate":92.55,"County_Lat":33.506014,"County_Long":-84.357362,"Store_Name":"The Varsity","Store_Lat":33.7715946,"Store_Long":-84.3893032,"Store_Address":"61 North Avenue Northwest, Atlanta","Dist":18.3961737527},{"County_ID":631,"County_Name":"Clayton County","County_Income":"32,702.00","Poverty_Rate":92.55,"County_Lat":33.506014,"County_Long":-84.357362,"Store_Name":"Mary Mac's Tea Room","Store_Lat":33.7728318,"Store_Long":-84.3800002,"Store_Address":"224 Ponce De Leon Avenue Northeast, Atlanta","Dist":18.4353090973},{"County_ID":631,"County_Name":"Clayton County","County_Income":"32,702.00","Poverty_Rate":92.55,"County_Lat":33.506014,"County_Long":-84.357362,"Store_Name":"STATS Brewpub","Store_Lat":33.7615127,"Store_Long":-84.3962936,"Store_Address":"300 Marietta Street NorthWest Suite 101, Atlanta","Dist":17.7513928089},{"County_ID":633,"County_Name":"Cobb County","County_Income":"63,214.00","Poverty_Rate":39.14,"County_Lat":33.962944,"County_Long":-84.544548,"Store_Name":"Hyatt Regency Atlanta","Store_Lat":33.7613755,"Store_Long":-84.3873556,"Store_Address":"265 Peachtree Street Northeast, Atlanta","Dist":16.5738670156},{"County_ID":633,"County_Name":"Cobb County","County_Income":"63,214.00","Poverty_Rate":39.14,"County_Lat":33.962944,"County_Long":-84.544548,"Store_Name":"The Varsity","Store_Lat":33.7715946,"Store_Long":-84.3893032,"Store_Address":"61 North Avenue Northwest, Atlanta","Dist":15.9247751764},{"County_ID":633,"County_Name":"Cobb County","County_Income":"63,214.00","Poverty_Rate":39.14,"County_Lat":33.962944,"County_Long":-84.544548,"Store_Name":"Mary Mac's Tea Room","Store_Lat":33.7728318,"Store_Long":-84.3800002,"Store_Address":"224 Ponce De Leon Avenue Northeast, Atlanta","Dist":16.161360386},{"County_ID":633,"County_Name":"Cobb County","County_Income":"63,214.00","Poverty_Rate":39.14,"County_Lat":33.962944,"County_Long":-84.544548,"Store_Name":"STATS Brewpub","Store_Lat":33.7615127,"Store_Long":-84.3962936,"Store_Address":"300 Marietta Street NorthWest Suite 101, Atlanta","Dist":16.2912457288},{"County_ID":634,"County_Name":"Coffee County","County_Income":"35,507.00","Poverty_Rate":87.34,"County_Lat":31.508705,"County_Long":-82.850724,"Store_Name":"Subway","Store_Lat":31.5097152,"Store_Long":-82.8617336,"Store_Address":"919 West Ward Street Suite A, Douglas","Dist":0.6535679748},{"County_ID":634,"County_Name":"Coffee County","County_Income":"35,507.00","Poverty_Rate":87.34,"County_Lat":31.508705,"County_Long":-82.850724,"Store_Name":"Subway","Store_Lat":31.5337532,"Store_Long":-82.4634602,"Store_Address":"928 South Pierce Street, Alma","Dist":22.9207155836},{"County_ID":634,"County_Name":"Coffee County","County_Income":"35,507.00","Poverty_Rate":87.34,"County_Lat":31.508705,"County_Long":-82.850724,"Store_Name":"Subway","Store_Lat":31.6041586,"Store_Long":-83.2509305,"Store_Address":"802 North Irwin Avenue, Ocilla","Dist":24.5094376153},{"County_ID":634,"County_Name":"Coffee County","County_Income":"35,507.00","Poverty_Rate":87.34,"County_Lat":31.508705,"County_Long":-82.850724,"Store_Name":"Ruby Tuesday","Store_Lat":31.489787,"Store_Long":-82.850513,"Store_Address":"1324 South Madison Avenue, Douglas","Dist":1.3034421088},{"County_ID":635,"County_Name":"Colquitt County","County_Income":"37,418.00","Poverty_Rate":86.21,"County_Lat":31.190741,"County_Long":-83.789843,"Store_Name":"Subway","Store_Lat":31.5504827,"Store_Long":-84.0464653,"Store_Address":"814 Radford Loop Bldg 7500, Albany","Dist":29.0582975711},{"County_ID":635,"County_Name":"Colquitt County","County_Income":"37,418.00","Poverty_Rate":86.21,"County_Lat":31.190741,"County_Long":-83.789843,"Store_Name":"Quality Inn","Store_Lat":31.4576073,"Store_Long":-83.5315965,"Store_Address":"1104 King Road, Tifton","Dist":23.9018949569},{"County_ID":635,"County_Name":"Colquitt County","County_Income":"37,418.00","Poverty_Rate":86.21,"County_Lat":31.190741,"County_Long":-83.789843,"Store_Name":"Subway","Store_Lat":31.442614,"Store_Long":-83.5424368,"Store_Address":"1830 U.S. 82 West, Tifton","Dist":22.6990118814},{"County_ID":635,"County_Name":"Colquitt County","County_Income":"37,418.00","Poverty_Rate":86.21,"County_Lat":31.190741,"County_Long":-83.789843,"Store_Name":"Subway","Store_Lat":31.1801853,"Store_Long":-83.790297,"Store_Address":"100 West Central Avenue, Moultrie","Dist":0.7277113808},{"County_ID":644,"County_Name":"DeKalb County","County_Income":"56,428.00","Poverty_Rate":68.56,"County_Lat":33.77435,"County_Long":-84.297124,"Store_Name":"Hyatt Regency Atlanta","Store_Lat":33.7613755,"Store_Long":-84.3873556,"Store_Address":"265 Peachtree Street Northeast, Atlanta","Dist":5.2702296071},{"County_ID":644,"County_Name":"DeKalb County","County_Income":"56,428.00","Poverty_Rate":68.56,"County_Lat":33.77435,"County_Long":-84.297124,"Store_Name":"The Varsity","Store_Lat":33.7715946,"Store_Long":-84.3893032,"Store_Address":"61 North Avenue Northwest, Atlanta","Dist":5.3090010364},{"County_ID":644,"County_Name":"DeKalb County","County_Income":"56,428.00","Poverty_Rate":68.56,"County_Lat":33.77435,"County_Long":-84.297124,"Store_Name":"Mary Mac's Tea Room","Store_Lat":33.7728318,"Store_Long":-84.3800002,"Store_Address":"224 Ponce De Leon Avenue Northeast, Atlanta","Dist":4.7712593467},{"County_ID":644,"County_Name":"DeKalb County","County_Income":"56,428.00","Poverty_Rate":68.56,"County_Lat":33.77435,"County_Long":-84.297124,"Store_Name":"STATS Brewpub","Store_Lat":33.7615127,"Store_Long":-84.3962936,"Store_Address":"300 Marietta Street NorthWest Suite 101, Atlanta","Dist":5.7764482048},{"County_ID":650,"County_Name":"Echols County","County_Income":"31,945.00","Poverty_Rate":91.26,"County_Lat":30.70335,"County_Long":-83.027601,"Store_Name":"Texas Roadhouse","Store_Lat":30.84154,"Store_Long":-83.32686,"Store_Address":"1874 Club House Drive, Valdosta","Dist":20.1867495525},{"County_ID":650,"County_Name":"Echols County","County_Income":"31,945.00","Poverty_Rate":91.26,"County_Lat":30.70335,"County_Long":-83.027601,"Store_Name":"Subway","Store_Lat":30.8831945,"Store_Long":-83.290679,"Store_Address":"3255A Inner Perimeter Road, Valdosta","Dist":19.9568938417},{"County_ID":650,"County_Name":"Echols County","County_Income":"31,945.00","Poverty_Rate":91.26,"County_Lat":30.70335,"County_Long":-83.027601,"Store_Name":"Austins Cattle Company","Store_Lat":30.8169935,"Store_Long":-83.3172407,"Store_Address":"2101 West Hill Avenue, Valdosta","Dist":18.9261791812},{"County_ID":650,"County_Name":"Echols County","County_Income":"31,945.00","Poverty_Rate":91.26,"County_Lat":30.70335,"County_Long":-83.027601,"Store_Name":"Quality Inn At The Mall - Valdosta","Store_Lat":30.84281,"Store_Long":-83.323008,"Store_Address":"1705 Gornto Road, Valdosta","Dist":20.0267093549},{"County_ID":658,"County_Name":"Forsyth County","County_Income":"67,859.00","Poverty_Rate":13.68,"County_Lat":34.206598,"County_Long":-84.138697,"Store_Name":"Dave & Buster's","Store_Lat":33.9808546,"Store_Long":-84.0786662,"Store_Address":"5900 Sugarloaf Parkway Suite 441, Lawrenceville","Dist":15.9355950895},{"County_ID":658,"County_Name":"Forsyth County","County_Income":"67,859.00","Poverty_Rate":13.68,"County_Lat":34.206598,"County_Long":-84.138697,"Store_Name":"Quality Inn & Suites","Store_Lat":34.358966,"Store_Long":-84.039881,"Store_Address":"127 Beartooth Parkway, Dawsonville","Dist":11.9273733858},{"County_ID":658,"County_Name":"Forsyth County","County_Income":"67,859.00","Poverty_Rate":13.68,"County_Lat":34.206598,"County_Long":-84.138697,"Store_Name":"Outback Steakhouse","Store_Lat":34.0455375,"Store_Long":-84.2923317,"Store_Address":"6400 North Point Parkway, Alpharetta","Dist":14.1699650227},{"County_ID":658,"County_Name":"Forsyth County","County_Income":"67,859.00","Poverty_Rate":13.68,"County_Lat":34.206598,"County_Long":-84.138697,"Store_Name":"Movie Tavern Tucker","Store_Lat":33.8427442,"Store_Long":-84.2515201,"Store_Address":"4043 Lavista Road, Tucker","Dist":25.900685952},{"County_ID":660,"County_Name":"Fulton County","County_Income":"95,683.00","Poverty_Rate":42.17,"County_Lat":33.758231,"County_Long":-84.391101,"Store_Name":"Hyatt Regency Atlanta","Store_Lat":33.7613755,"Store_Long":-84.3873556,"Store_Address":"265 Peachtree Street Northeast, Atlanta","Dist":0.3057057056},{"County_ID":660,"County_Name":"Fulton County","County_Income":"95,683.00","Poverty_Rate":42.17,"County_Lat":33.758231,"County_Long":-84.391101,"Store_Name":"The Varsity","Store_Lat":33.7715946,"Store_Long":-84.3893032,"Store_Address":"61 North Avenue Northwest, Atlanta","Dist":0.9268325254},{"County_ID":660,"County_Name":"Fulton County","County_Income":"95,683.00","Poverty_Rate":42.17,"County_Lat":33.758231,"County_Long":-84.391101,"Store_Name":"STATS Brewpub","Store_Lat":33.7615127,"Store_Long":-84.3962936,"Store_Address":"300 Marietta Street NorthWest Suite 101, Atlanta","Dist":0.3748455395},{"County_ID":660,"County_Name":"Fulton County","County_Income":"95,683.00","Poverty_Rate":42.17,"County_Lat":33.758231,"County_Long":-84.391101,"Store_Name":"Hard Rock Cafe","Store_Lat":33.7598163,"Store_Long":-84.3874499,"Store_Address":"215 Peachtree Street Northeast, Atlanta","Dist":0.2368849883},{"County_ID":667,"County_Name":"Gwinnett County","County_Income":"46,886.00","Poverty_Rate":50.3,"County_Lat":33.966996,"County_Long":-83.99421,"Store_Name":"Hyatt Regency Atlanta","Store_Lat":33.7613755,"Store_Long":-84.3873556,"Store_Address":"265 Peachtree Street Northeast, Atlanta","Dist":26.6796129078},{"County_ID":667,"County_Name":"Gwinnett County","County_Income":"46,886.00","Poverty_Rate":50.3,"County_Lat":33.966996,"County_Long":-83.99421,"Store_Name":"The Varsity","Store_Lat":33.7715946,"Store_Long":-84.3893032,"Store_Address":"61 North Avenue Northwest, Atlanta","Dist":26.4073583348},{"County_ID":667,"County_Name":"Gwinnett County","County_Income":"46,886.00","Poverty_Rate":50.3,"County_Lat":33.966996,"County_Long":-83.99421,"Store_Name":"Mary Mac's Tea Room","Store_Lat":33.7728318,"Store_Long":-84.3800002,"Store_Address":"224 Ponce De Leon Avenue Northeast, Atlanta","Dist":25.9044307474},{"County_ID":667,"County_Name":"Gwinnett County","County_Income":"46,886.00","Poverty_Rate":50.3,"County_Lat":33.966996,"County_Long":-83.99421,"Store_Name":"Dave & Buster's","Store_Lat":33.9808546,"Store_Long":-84.0786662,"Store_Address":"5900 Sugarloaf Parkway Suite 441, Lawrenceville","Dist":4.942878422},{"County_ID":683,"County_Name":"Johnson County","County_Income":"27,965.00","Poverty_Rate":94.38,"County_Lat":32.730663,"County_Long":-82.719275,"Store_Name":"Subway","Store_Lat":32.551125,"Store_Long":-82.9722934,"Store_Address":"2423 Hwy 80 W, Dublin","Dist":19.2529237917},{"County_ID":683,"County_Name":"Johnson County","County_Income":"27,965.00","Poverty_Rate":94.38,"County_Lat":32.730663,"County_Long":-82.719275,"Store_Name":"Subway","Store_Lat":32.5499723,"Store_Long":-82.8778637,"Store_Address":"612 Central Drive, East Dublin","Dist":15.5088938998},{"County_ID":683,"County_Name":"Johnson County","County_Income":"27,965.00","Poverty_Rate":94.38,"County_Lat":32.730663,"County_Long":-82.719275,"Store_Name":"Ruby Tuesday","Store_Lat":32.489143,"Store_Long":-82.933309,"Store_Address":"2190 U.S. 441, Dublin","Dist":20.8041164878},{"County_ID":683,"County_Name":"Johnson County","County_Income":"27,965.00","Poverty_Rate":94.38,"County_Lat":32.730663,"County_Long":-82.719275,"Store_Name":"Subway","Store_Lat":32.542958,"Store_Long":-82.9499733,"Store_Address":"2005 Veterans Boulevard Suite A 14, Dublin","Dist":18.6609937394},{"County_ID":692,"County_Name":"Lowndes County","County_Income":"41,117.00","Poverty_Rate":43.76,"County_Lat":30.84189,"County_Long":-83.27888,"Store_Name":"Texas Roadhouse","Store_Lat":30.84154,"Store_Long":-83.32686,"Store_Address":"1874 Club House Drive, Valdosta","Dist":2.8520989932},{"County_ID":692,"County_Name":"Lowndes County","County_Income":"41,117.00","Poverty_Rate":43.76,"County_Lat":30.84189,"County_Long":-83.27888,"Store_Name":"Subway","Store_Lat":30.8831945,"Store_Long":-83.290679,"Store_Address":"3255A Inner Perimeter Road, Valdosta","Dist":2.9305744964},{"County_ID":692,"County_Name":"Lowndes County","County_Income":"41,117.00","Poverty_Rate":43.76,"County_Lat":30.84189,"County_Long":-83.27888,"Store_Name":"Austins Cattle Company","Store_Lat":30.8169935,"Store_Long":-83.3172407,"Store_Address":"2101 West Hill Avenue, Valdosta","Dist":2.8534654923},{"County_ID":692,"County_Name":"Lowndes County","County_Income":"41,117.00","Poverty_Rate":43.76,"County_Lat":30.84189,"County_Long":-83.27888,"Store_Name":"Quality Inn At The Mall - Valdosta","Store_Lat":30.84281,"Store_Long":-83.323008,"Store_Address":"1705 Gornto Road, Valdosta","Dist":2.6237772096},{"County_ID":699,"County_Name":"Meriwether County","County_Income":"39,121.00","Poverty_Rate":88.02,"County_Lat":33.029043,"County_Long":-84.713045,"Store_Name":"The Lodge and Spa at Callaway Gardens","Store_Lat":32.8477018,"Store_Long":-84.8539174,"Store_Address":"4500 Southern Pine Drive, Pine Mountain","Dist":14.9390759703},{"County_ID":699,"County_Name":"Meriwether County","County_Income":"39,121.00","Poverty_Rate":88.02,"County_Lat":33.029043,"County_Long":-84.713045,"Store_Name":"Subway","Store_Lat":33.0286993,"Store_Long":-84.7130744,"Store_Address":"1048 N Talbutton Highway, Greenville","Dist":0.0237468521},{"County_ID":699,"County_Name":"Meriwether County","County_Income":"39,121.00","Poverty_Rate":88.02,"County_Lat":33.029043,"County_Long":-84.713045,"Store_Name":"The Bulloch House Restaurant","Store_Lat":32.890318,"Store_Long":-84.679828,"Store_Address":"70 Broad Street, Warm Springs","Dist":9.7526942636},{"County_ID":699,"County_Name":"Meriwether County","County_Income":"39,121.00","Poverty_Rate":88.02,"County_Lat":33.029043,"County_Long":-84.713045,"Store_Name":"Subway","Store_Lat":33.3206437,"Store_Long":-84.777732,"Store_Address":"1645 HIghway 29 South, Newnan","Dist":20.4422801514},{"County_ID":703,"County_Name":"Montgomery County","County_Income":"34,061.00","Poverty_Rate":94.83,"County_Lat":32.174174,"County_Long":-82.594652,"Store_Name":"Ruby Tuesday","Store_Lat":32.2061106,"Store_Long":-82.3713185,"Store_Address":"2711 East 1st Street, Vidalia","Dist":13.2696914869},{"County_ID":703,"County_Name":"Montgomery County","County_Income":"34,061.00","Poverty_Rate":94.83,"County_Lat":32.174174,"County_Long":-82.594652,"Store_Name":"Subway","Store_Lat":32.2147107,"Store_Long":-82.4075242,"Store_Address":"623 East 1st Street, Vidalia","Dist":11.3142031177},{"County_ID":703,"County_Name":"Montgomery County","County_Income":"34,061.00","Poverty_Rate":94.83,"County_Lat":32.174174,"County_Long":-82.594652,"Store_Name":"Subway","Store_Lat":32.069432,"Store_Long":-82.904641,"Store_Address":"78 West Oak Street, McRae-Helena","Dist":19.557315229},{"County_ID":703,"County_Name":"Montgomery County","County_Income":"34,061.00","Poverty_Rate":94.83,"County_Lat":32.174174,"County_Long":-82.594652,"Store_Name":"Subway","Store_Lat":32.1999415,"Store_Long":-82.3277815,"Store_Address":"166 Victory Drive, Lyons","Dist":15.7379522399},{"County_ID":750,"County_Name":"Washington County","County_Income":"39,151.00","Poverty_Rate":85.62,"County_Lat":32.983578,"County_Long":-82.811602,"Store_Name":"Ruby Tuesday","Store_Lat":33.110224,"Store_Long":-83.256479,"Store_Address":"2440 North Columbia Street, Milledgeville","Dist":27.2550646958},{"County_ID":750,"County_Name":"Washington County","County_Income":"39,151.00","Poverty_Rate":85.62,"County_Lat":32.983578,"County_Long":-82.811602,"Store_Name":"Subway","Store_Lat":32.9725173,"Store_Long":-82.8105994,"Store_Address":"630 South Harris Street, Sandersville","Dist":0.7644426235},{"County_ID":750,"County_Name":"Washington County","County_Income":"39,151.00","Poverty_Rate":85.62,"County_Lat":32.983578,"County_Long":-82.811602,"Store_Name":"Subway","Store_Lat":32.7305903,"Store_Long":-82.7189854,"Store_Address":"201 North Bradford Street, Wrightsville","Dist":18.2469565731},{"County_ID":750,"County_Name":"Washington County","County_Income":"39,151.00","Poverty_Rate":85.62,"County_Lat":32.983578,"County_Long":-82.811602,"Store_Name":"Subway","Store_Lat":33.006651,"Store_Long":-82.3969533,"Store_Address":"114 U.S. 1, Louisville","Dist":24.132034201},{"County_ID":757,"County_Name":"Wilkes County","County_Income":"42,093.00","Poverty_Rate":94.17,"County_Lat":33.746467,"County_Long":-82.740314,"Store_Name":"Subway","Store_Lat":33.4621351,"Store_Long":-82.5064056,"Store_Address":"318 West Hill Street, Thomson","Dist":23.7901196805},{"County_ID":757,"County_Name":"Wilkes County","County_Income":"42,093.00","Poverty_Rate":94.17,"County_Lat":33.746467,"County_Long":-82.740314,"Store_Name":"Subway","Store_Lat":33.883483,"Store_Long":-83.122709,"Store_Address":"726 Athens Highway, Lexington","Dist":23.9401452878},{"County_ID":757,"County_Name":"Wilkes County","County_Income":"42,093.00","Poverty_Rate":94.17,"County_Lat":33.746467,"County_Long":-82.740314,"Store_Name":"Subway","Store_Lat":33.9101012,"Store_Long":-82.2940749,"Store_Address":"201 South Mine Street, McCormick","Dist":28.0362555785},{"County_ID":757,"County_Name":"Wilkes County","County_Income":"42,093.00","Poverty_Rate":94.17,"County_Lat":33.746467,"County_Long":-82.740314,"Store_Name":"Subway","Store_Lat":33.5141709,"Store_Long":-82.5035929,"Store_Address":"2129 Washington Road NW, Thomson","Dist":21.0373591012}]